"","id","latitude","longitude","elevation","name"
"1","US1NYAB0001",42.667,-74.0509,445,"ALTAMONT 2.7 SSW"
"2","US1NYAB0006",42.7198,-73.9304,88.7,"SCHENECTADY 5.6 SSW"
"3","US1NYAB0010",42.5455,-74.1475,488.3,"RENSSELAERVILLE 2.1 NNW"
"4","US1NYAB0016",42.759,-73.737,104.2,"LATHAM 1.1 NNE"
"5","US1NYAB0017",42.6678,-73.7856,65.5,"ALBANY 0.7 E"
"6","US1NYAB0021",42.6918,-73.8311,79.2,"NWS ALBANY"
"7","US1NYAB0022",42.7038,-73.8118,87.8,"COLONIE 1.6 SE"
"8","US1NYAB0023",42.6602,-73.8103,78,"ALBANY 0.7 SW"
"9","US1NYAB0025",42.6721,-73.914,94.8,"VOORHEESVILLE 2.0 NNE"
"10","US1NYAB0028",42.7243,-73.757,120.1,"LATHAM 1.5 SSW"
"11","US1NYAB0029",42.6193,-73.8203,64.9,"DELMAR 0.8 ESE"
"12","US1NYAB0032",42.5754,-73.7995,54.6,"GLENMONT 2.5 SW"
"13","US1NYAB0037",42.7686,-73.6911,18,"COHOES 0.9 ESE"
"14","US1NYAB0039",42.6624,-73.7907,66.4,"ALBANY 0.5 ESE"
"15","US1NYAB0041",42.6641,-73.7935,64.9,"ALBANY 0.3 ESE"
"16","US1NYAB0042",42.5041,-73.8981,219.8,"COEYMANS HOLLOW 2.1 N"
"17","US1NYAL0002",42.2705,-77.9419,555.7,"WEST ALMOND 3.6 SW"
"18","US1NYAL0003",42.2495,-78.2998,478.5,"CUBA 2.5 NNW"
"19","US1NYAL0007",42.1215,-77.9534,452,"WELLSVILLE 0.3 W"
"20","US1NYAL0009",42.2093,-78.1317,457.5,"FRIENDSHIP 0.6 ENE"
"21","US1NYBM0001",42.193,-75.848,280.7,"CHENANGO FORKS 3.0 SE"
"22","US1NYBM0002",42.2333,-75.7833,231.6,"FENTON 2.4 NE"
"23","US1NYBM0004",42.0296,-76.0213,317,"ENDICOTT 5.2 SSE"
"24","US1NYBM0005",42.1333,-75.7833,243.8,"PORT DICKINSON 5.6 E"
"25","US1NYBM0006",42.0667,-75.95,354.8,"BINGHAMTON 3.2 SW"
"26","US1NYBM0007",42.0493,-76.0288,303,"VESTAL 2.8 SSE"
"27","US1NYBM0010",42.35,-75.9,348.1,"WHITNEY POINT 3.7 ENE"
"28","US1NYBM0011",42.0735,-75.9296,412.1,"BINGHAMTON 1.8 SW"
"29","US1NYBM0014",42.3084,-75.9569,385.9,"WHITNEY POINT 1.7 SSE"
"30","US1NYBM0019",42.3442,-75.8635,425.8,"TRIANGLE 0.9 ENE"
"31","US1NYBM0021",42.0099,-75.5142,507.8,"WINDSOR 8.0 SE"
"32","US1NYBM0023",42.1972,-75.8347,268.5,"CHENANGO BRIDGE 2.5 NE"
"33","US1NYBM0024",42.1098,-75.8858,259.4,"BINGHAMTON 1.3 ENE"
"34","US1NYBM0026",42.1127,-76.013,293.5,"ENDWELL 0.6 ESE"
"35","US1NYBM0032",42.1415,-75.889,272.2,"BINGHAMTON 2.9 NNE"
"36","US1NYBM0034",42.0826,-75.9912,423.7,"VESTAL 3.2 E"
"37","US1NYBM0037",42.1405,-75.9116,272.2,"BINGHAMTON 2.7 N"
"38","US1NYBM0040",42.0796,-76.051,264.6,"VESTAL 0.4 SSE"
"39","US1NYCB0001",42.1335,-73.7679,90.8,"HUDSON 8.2 S"
"40","US1NYCB0006",42.4727,-73.6439,100.9,"NORTH CHATHAM 0.6 W"
"41","US1NYCB0008",42.1331,-73.7854,73.8,"LIVINGSTON 0.7 SSW"
"42","US1NYCB0009",42.2617,-73.5416,377,"HILLSDALE 5.8 S"
"43","US1NYCL0002",44.6231,-73.5602,143.3,"SCHUYLER FALLS 0.2 NNW"
"44","US1NYCL0005",44.9848,-73.3639,30.5,"ROUSES POINT 0.5 SSE"
"45","US1NYCL0007",44.5646,-73.4539,55.2,"PERU 4.1 ESE"
"46","US1NYCL0008",44.7091,-73.5876,180.1,"MORRISONVILLE 1.5 NW"
"47","US1NYCL0012",44.6398,-73.7385,253,"SARANAC 0.8 SSE"
"48","US1NYCM0002",42.0833,-76.8,579.1,"ELMIRA 0.9 SE"
"49","US1NYCM0003",42.0839,-76.7881,256,"ELMIRA 1.3 ESE"
"50","US1NYCM0004",42.0167,-76.85,454.2,"SOUTHPORT 3.8 SSW"
"51","US1NYCM0005",42.15,-76.95,304.8,"BIG FLATS 1.1 WNW"
"52","US1NYCM0006",42.089,-76.7489,341.4,"ELMIRA 3.2 E"
"53","US1NYCM0007",42.083,-76.8462,271.3,"WEST ELMIRA 0.5 SSE"
"54","US1NYCM0008",42.15,-76.8167,271.9,"HORSEHEADS 1.5 SSE"
"55","US1NYCM0010",42.2,-76.55,182.9,"VAN ETTEN 0.3 ENE"
"56","US1NYCM0012",42.1437,-76.9512,281.9,"HORSEHEADS"
"57","US1NYCM0013",42.0975,-76.8231,269.4,"ELMIRA 0.7 WNW"
"58","US1NYCM0014",42.1707,-76.8435,287.1,"HORSEHEADS 0.7 W"
"59","US1NYCM0017",42.0022,-76.8308,484,"PINE CITY 3.1 SE"
"60","US1NYCM0019",42.1734,-76.8604,301.4,"HORSEHEADS 1.6 W"
"61","US1NYCM0020",42.1325,-76.8159,265.5,"HORSEHEADS 2.7 SSE"
"62","US1NYCM0021",42.1021,-76.8304,284.1,"ELMIRA 1.2 WNW"
"63","US1NYCM0023",42.1824,-76.8349,287.7,"HORSEHEADS 0.9 NNW"
"64","US1NYCM0024",42.0913,-76.6281,325.8,"CHEMUNG 5.7 N"
"65","US1NYCN0002",42.5833,-75.4333,548.6,"NORWICH 5.7 NE"
"66","US1NYCN0003",42.3333,-75.7667,276.1,"GREENE 0.3 NE"
"67","US1NYCN0006",42.3225,-75.7507,342,"GREENE 1.2 ESE"
"68","US1NYCN0008",42.726,-75.462,384,"SHERBURNE 3.6 NNE"
"69","US1NYCN0009",42.5336,-75.6306,456.6,"NORWICH 5.4 W"
"70","US1NYCN0011",42.699,-75.6121,383.1,"SMYRNA 2.4 WNW"
"71","US1NYCN0013",42.412,-75.5037,480.4,"GUILFORD 0.9 NW"
"72","US1NYCN0014",42.4516,-75.6017,379.2,"OXFORD 0.8 NNW"
"73","US1NYCN0016",42.2872,-75.5363,348.7,"BAINBRIDGE 2.9 WSW"
"74","US1NYCN0018",42.2124,-75.4238,550.2,"BAINBRIDGE 6.5 SSE"
"75","US1NYCQ0005",42.1594,-79.0967,391.4,"KENNEDY 0.3 NE"
"76","US1NYCQ0006",42.4474,-79.2045,356.3,"FORESTVILLE 2.1 SW"
"77","US1NYCQ0007",42.0015,-79.13,429.2,"FREWSBURG 4.3 SSE"
"78","US1NYCQ0010",42.4825,-79.3428,188.1,"DUNKIRK 5.8 S"
"79","US1NYCQ0012",42.0957,-79.2013,463.9,"JAMESTOWN 1.8 E"
"80","US1NYCQ0015",42.1621,-79.5885,477,"SHERMAN 0.4 ENE"
"81","US1NYCQ0017",42.446,-79.1371,430.4,"FORESTVILLE 2.5 SE"
"82","US1NYCQ0019",42.2127,-79.7555,392.6,"RIPLEY 4.3 SSW"
"83","US1NYCQ0021",42.016,-79.1249,441,"FREWSBURG 3.4 SSE"
"84","US1NYCQ0022",42.4441,-79.3461,207.3,"FREDONIA 0.8 WNW"
"85","US1NYCQ0034",42.1257,-79.0723,478.5,"KENNEDY 2.6 SE"
"86","US1NYCR0001",42.533,-76.0211,476.7,"FREETOWN 1.0 NE"
"87","US1NYCR0003",42.4739,-75.8725,427.3,"WILLET 1.8 E"
"88","US1NYCR0005",42.4516,-76.0437,313.9,"MARATHON 1.0 NW"
"89","US1NYCR0008",42.4407,-76.049,376.7,"MARATHON 0.7 WSW"
"90","US1NYCR0010",42.6038,-76.1637,336.8,"CORTLAND 0.8 ENE"
"91","US1NYCR0013",42.5658,-76.2053,417.9,"CORTLAND 2.8 SSW"
"92","US1NYCT0002",42.1706,-78.9612,406.9,"RANDOLPH 1.1 ENE"
"93","US1NYCT0003",42.2847,-78.3115,486.5,"CUBA 4.9 NNW"
"94","US1NYCT0005",42.0013,-78.3595,441,"PORTVILLE 2.6 SSW"
"95","US1NYCT0006",42.092,-78.413,469.7,"OLEAN 1.2 NE"
"96","US1NYCT0007",42.224,-78.4299,586.1,"HINSDALE 4.4 NW"
"97","US1NYCT0010",42.1659,-78.9324,431.6,"RANDOLPH 2.4 E"
"98","US1NYCT0011",42.1587,-78.4905,508.1,"ALLEGANY 4.7 N"
"99","US1NYCT0012",42.3312,-78.4615,481.6,"FRANKLINVILLE 0.4 SW"
"100","US1NYCT0014",42.46,-79,378.9,"PERRYSBURG 0.1 ENE"
"101","US1NYCT0015",42.4012,-78.6092,469.4,"WEST VALLEY 0.1 SE"
"102","US1NYCT0021",42.2647,-78.801,518.2,"LITTLE VALLEY 1.1 N"
"103","US1NYCT0022",42.3417,-78.4528,488.6,"FRANKLINVILLE 0.5 NNE"
"104","US1NYCT0025",42.243,-78.3964,466,"ISCHUA 0.4 SSE"
"105","US1NYCY0001",42.739,-76.657,259.1,"AURORA 2.8 ESE"
"106","US1NYCY0002",42.8966,-76.6727,158.5,"CAYUGA 3.2 ESE"
"107","US1NYCY0003",42.9333,-76.65,155.4,"CAYUGA 4.1 ENE"
"108","US1NYCY0004",42.6569,-76.4336,246.9,"LOCKE 0.3 SW"
"109","US1NYCY0005",43.142,-76.6889,122.2,"DUCK LAKE"
"110","US1NYCY0008",42.8287,-76.4867,320,"AUBURN 8.3 SSE"
"111","US1NYCY0009",42.7031,-76.4202,230.1,"MORAVIA 0.6 S"
"112","US1NYCY0010",43.2237,-76.6107,121.6,"MARTVILLE 4.0 SSE"
"113","US1NYCY0013",42.7051,-76.3751,466,"MORAVIA 2.5 ESE"
"114","US1NYCY0014",42.9752,-76.7072,143.9,"CAYUGA 4.0 NNE"
"115","US1NYCY0021",43.0381,-76.6303,121.3,"PORT BYRON 0.2 WNW"
"116","US1NYCY0024",42.6295,-76.412,397.2,"LOCKE 2.4 SSE"
"117","US1NYCY0026",42.7864,-76.7034,152.7,"AURORA 2.4 N"
"118","US1NYCY0027",42.7349,-76.3114,532.2,"MORAVIA 5.9 ENE"
"119","US1NYDL0001",42.2519,-74.9874,518.2,"DELHI 4.2 WSW"
"120","US1NYDL0003",42.4189,-74.621,609.6,"STAMFORD 0.7 NNW"
"121","US1NYDL0004",42.3667,-74.95,562.1,"DELHI 6.3 NNW"
"122","US1NYDL0005",42.3003,-74.9026,462.1,"DELHI 1.5 NNE"
"123","US1NYDL0006",42.2608,-74.8195,534,"DELHI 5.0 ESE"
"124","US1NYDL0008",42.1496,-74.6189,427,"MARGARETVILLE 1.7 ENE"
"125","US1NYDL0009",42.1792,-74.9167,502.9,"ANDES 6.8 W"
"126","US1NYDL0011",42.4528,-75.1033,346.9,"WEST END 1.2 SSW"
"127","US1NYDL0016",41.9511,-75.3024,277.4,"HANCOCK 1.0 W"
"128","US1NYDL0017",41.9893,-75.1318,305.4,"EAST BRANCH 0.2 S"
"129","US1NYDL0022",42.3442,-74.7317,457.2,"SOUTH KORTRIGHT 0.8 W"
"130","US1NYDL0023",41.9351,-75.0784,532.2,"LONG EDDY 6.5 NNE"
"131","US1NYDL0024",42.1653,-75.2585,380.7,"WALTON 6.5 W"
"132","US1NYDL0025",42.3523,-74.5783,676.7,"HOBART 4.8 ESE"
"133","US1NYDL0028",42.2378,-74.5234,760.8,"FLEISCHMANNS 5.7 N"
"134","US1NYDL0031",42.1964,-74.9597,465.7,"DELANCEY 0.9 SE"
"135","US1NYDL0032",42.3212,-75.0299,616.3,"DELHI 6.6 WNW"
"136","US1NYDT0001",41.616,-73.8033,90.5,"HILLSIDE LAKE 0.3 WNW"
"137","US1NYDT0002",41.6634,-73.8419,112.5,"POUGHKEEPSIE 4.7 ESE"
"138","US1NYDT0004",41.5535,-73.7863,85,"HOPEWELL JUNCTION 2.4 SSE"
"139","US1NYDT0005",41.588,-73.8922,70.4,"WAPPINGERS FALLS 1.6 ESE"
"140","US1NYDT0007",41.7887,-73.9356,55.5,"HYDE PARK 1.5 W"
"141","US1NYDT0008",41.7523,-73.6488,312.1,"MILLBROOK 3.2 SE"
"142","US1NYDT0009",41.9231,-73.9021,64.6,"RHINEBECK 0.5 SE"
"143","US1NYDT0010",41.647,-73.897,72.5,"POUGHKEEPSIE 3.9 SSE"
"144","US1NYDT0012",41.6846,-73.7205,197.5,"LAGRANGEVILLE 3.4 NE"
"145","US1NYDT0016",41.5484,-73.8803,106.4,"FISHKILL 1.2 NE"
"146","US1NYDT0017",42.0155,-73.7392,119.8,"PINE PLAINS 4.9 WNW"
"147","US1NYDT0020",41.6074,-73.7532,122.8,"HOPEWELL JUNCTION 2.9 ENE"
"148","US1NYDT0023",41.497,-73.9559,70.7,"BEACON 0.7 SE"
"149","US1NYDT0024",42.0097,-73.8642,65.8,"RED HOOK 1.2 NNE"
"150","US1NYDT0028",41.8755,-73.8373,170.7,"RHINEBECK 5.2 SE"
"151","US1NYDT0029",41.6195,-73.9131,51.5,"POUGHKEEPSIE 5.3 S"
"152","US1NYER0001",42.9866,-78.8662,182.9,"TONAWANDA 0.5 ENE"
"153","US1NYER0002",42.8685,-78.8635,178,"BUFFALO 1.5 S"
"154","US1NYER0003",42.8627,-78.584,246.9,"ELMA 3.5 NE"
"155","US1NYER0004",43.0216,-78.7432,184.1,"WILLIAMSVILLE 4.1 N"
"156","US1NYER0006",42.9625,-78.8176,187.1,"KENMORE 2.7 E"
"157","US1NYER0007",42.9693,-78.6879,214,"WILLIAMSVILLE 2.7 E"
"158","US1NYER0008",42.9566,-78.4783,253.6,"AKRON 4.4 SSE"
"159","US1NYER0009",42.8167,-78.7136,233.8,"WEST SENECA 2.4 SE"
"160","US1NYER0010",42.6627,-78.6831,313.6,"COLDEN 1.3 NNE"
"161","US1NYER0012",42.8346,-78.7242,216.1,"WEST SENECA 1.4 E"
"162","US1NYER0013",42.8593,-78.7854,182.6,"WEST SENECA 2.3 NW"
"163","US1NYER0015",42.874,-78.6441,215.5,"LANCASTER 2.3 SE"
"164","US1NYER0024",42.9017,-78.8791,198.1,"BUFFALO 1.3 NW"
"165","US1NYER0025",42.975,-78.826,182.6,"TONAWANDA 2.6 ESE"
"166","US1NYER0026",42.7142,-78.9715,190.2,"DERBY 2.4 NNE"
"167","US1NYER0029",42.587,-78.8418,391.7,"NORTH COLLINS 4.9 E"
"168","US1NYER0035",42.8526,-78.7034,203.9,"WEST SENECA 2.6 ENE"
"169","US1NYER0039",42.7225,-78.8433,241.4,"HAMBURG 0.4 WSW"
"170","US1NYER0040",43.0153,-78.6705,185.6,"EAST AMHERST 1.4 ESE"
"171","US1NYER0044",42.8056,-78.6081,281.6,"ELMA CENTER 1.9 SE"
"172","US1NYER0045",42.7443,-78.4884,283.8,"EAST AURORA 6.7 ESE"
"173","US1NYER0046",42.986,-78.677,199.3,"WILLIAMSVILLE 3.6 ENE"
"174","US1NYER0050",42.7675,-78.6158,280.1,"EAST AURORA 0.1 ENE"
"175","US1NYER0051",43.021,-78.6289,191.1,"CLARENCE CENTER 0.9 N"
"176","US1NYER0053",42.836,-78.7897,185.9,"WEST SENECA 1.9 W"
"177","US1NYER0054",43.0225,-78.719,178,"EAST AMHERST 1.2 WNW"
"178","US1NYER0056",42.6474,-78.7112,465.7,"COLDEN 1.4 NNW"
"179","US1NYER0057",42.9735,-78.8817,185,"KENMORE 0.8 NW"
"180","US1NYER0058",42.8421,-78.8041,185.9,"BUFFALO 4.3 SE"
"181","US1NYER0059",42.9632,-78.8669,186.5,"KENMORE 0.3 ESE"
"182","US1NYER0060",42.7766,-78.8444,192,"BLASDELL 1.5 SSW"
"183","US1NYER0063",42.602,-78.6391,430.1,"GLENWOOD 1.5 SE"
"184","US1NYER0065",42.6547,-78.7201,475.8,"BOSTON 1.5 NE"
"185","US1NYER0066",42.7645,-78.598,310,"EAST AURORA 1.0 ESE"
"186","US1NYER0067",42.838,-78.7339,202.1,"WEST SENECA 0.9 E"
"187","US1NYER0068",42.9314,-78.6785,222.5,"LANCASTER 2.1 NNW"
"188","US1NYER0072",43.0137,-78.8296,173.7,"TONAWANDA 3.1 NE"
"189","US1NYER0075",42.8194,-78.6214,265.8,"ELMA CENTER 0.7 SE"
"190","US1NYER0077",42.6509,-78.6106,502.9,"COLDEN 2.4 ENE"
"191","US1NYER0078",42.7149,-78.8339,248.7,"HAMBURG 0.6 S"
"192","US1NYER0079",42.9108,-78.7049,206.7,"DEPEW 0.1 S"
"193","US1NYER0080",42.9265,-78.5952,233.2,"LANCASTER 4.1 ENE"
"194","US1NYER0081",42.9705,-78.8284,182.3,"TONAWANDA 2.6 ESE"
"195","US1NYER0083",42.9698,-78.7663,96.9,"WILLIAMSVILLE 1 NW"
"196","US1NYER0085",42.9852,-78.4863,251.2,"AKRON 2.4 S"
"197","US1NYER0086",43.0051,-78.866,176.5,"TONAWANDA 1.5 NNE"
"198","US1NYER0093",42.889,-78.8901,178,"BUFFALO 1.5 W"
"199","US1NYER0094",42.77,-78.7443,257.3,"ORCHARD PARK 0.5 N"
"200","US1NYER0095",42.9508,-78.8719,183.5,"BUFFALO 4.3 N"
"201","US1NYER0096",42.81,-78.6813,254.5,"ELMA 2.7 WSW"
"202","US1NYER0098",43.0521,-78.7643,176.8,"AMHERST 5.4 NNE"
"203","US1NYER0100",42.7138,-78.9589,199,"LAKE VIEW 1.2 W"
"204","US1NYER0102",42.9412,-78.7193,214.3,"CHEEKTOWAGA 2.7 NE"
"205","US1NYER0103",42.8347,-78.8227,207,"BUFFALO 4.2 SSE"
"206","US1NYER0104",42.9942,-78.7526,179.5,"WILLIAMSVILLE 2.2 NNW"
"207","US1NYER0107",42.9855,-78.7269,186.2,"AMHERST 3.3 ENE"
"208","US1NYER0109",42.9864,-78.8706,188.7,"BUFFALO 6.7 N"
"209","US1NYER0110",42.9858,-78.8905,183.8,"TONAWANDA 0.8 W"
"210","US1NYER0113",42.837,-78.7433,198.4,"WEST SENECA 0.4 E"
"211","US1NYER0116",42.8718,-78.5546,249.9,"ALDEN 3.6 WSW"
"212","US1NYER0120",42.7043,-78.9621,198.4,"DERBY 1.7 NNE"
"213","US1NYER0122",42.9346,-78.783,204.5,"CHEEKTOWAGA 2.4 NW"
"214","US1NYER0123",43.0455,-78.7215,177.1,"CLARENCE CENTER 5.2 WNW"
"215","US1NYER0124",42.9235,-78.7679,199,"CHEEKTOWAGA 1.3 NW"
"216","US1NYER0125",42.7228,-78.8288,249.3,"HAMBURG 0.3 ESE"
"217","US1NYER0132",42.8744,-78.6603,213.4,"LANCASTER 1.9 SSE"
"218","US1NYER0135",42.854,-78.7716,187.5,"WEST SENECA 1.5 NW"
"219","US1NYER0138",42.814,-78.5967,269.4,"EAST AURORA 3.4 NNE"
"220","US1NYER0145",42.8256,-78.6011,267.9,"ELMA CENTER 1.6 E"
"221","US1NYER0147",42.9974,-78.7403,180.7,"WILLIAMSVILLE 2.4 N"
"222","US1NYER0150",42.6348,-78.8862,318.8,"EDEN 1.4 SSE"
"223","US1NYER0151",43.0074,-78.6292,197.5,"CLARENCE CENTER 0.2 ESE"
"224","US1NYER0158",42.7294,-78.6056,330.7,"EAST AURORA 2.7 SSE"
"225","US1NYES0001",44.3049,-73.9864,578.8,"LAKE PLACID 1.5 N"
"226","US1NYES0004",44.2435,-73.81,355.7,"KEENE 1.3 SW"
"227","US1NYES0005",43.8086,-73.8189,416.7,"SCHROON LAKE 3.5 SW"
"228","US1NYES0006",43.8335,-73.8978,459.3,"OLMSTEDVILLE 4.6 NNE"
"229","US1NYES0007",44.495,-73.4711,160.9,"KEESEVILLE 0.8 SE"
"230","US1NYES0008",44.4256,-73.9314,524.3,"BLOOMINGDALE 7.8 E"
"231","US1NYES0009",44.2154,-73.751,599.2,"KEENE VALLEY 2.5 NE"
"232","US1NYFK0002",44.4952,-74.1184,517.6,"ONCHIOTA 0.3 ENE"
"233","US1NYFK0007",44.4136,-74.1521,521.2,"SARANAC LAKE 6.2 N"
"234","US1NYFK0009",44.4193,-74.1619,514.5,"GABRIELS 1.3 SE"
"235","US1NYFL0007",43.0394,-74.1085,285.3,"BROADALBIN 4.7 ESE"
"236","US1NYFL0008",43.05,-74.3288,270.7,"GLOVERSVILLE 0.9 E"
"237","US1NYGN0001",43.1097,-78.3837,191.1,"OAKFIELD 6.5 WNW"
"238","US1NYGN0006",42.9989,-78.0483,274,"STAFFORD 1.8 NE"
"239","US1NYGN0009",42.9338,-78.1935,280.4,"BATAVIA 4.5 S"
"240","US1NYGN0011",42.9985,-78.2057,275.5,"BATAVIA 1.2 W"
"241","US1NYGN0013",42.9887,-78.2473,271.9,"BATAVIA 3.4 WSW"
"242","US1NYGN0015",42.9302,-78.357,299,"CORFU 3.0 SE"
"243","US1NYGR0005",42.4429,-73.7866,12.2,"NEW BALTIMORE 0.2 SE"
"244","US1NYGR0006",42.3605,-73.9835,229.8,"FREEHOLD 3.4 E"
"245","US1NYGR0007",42.414,-74.009,248.7,"GREENVILLE 0.7 E"
"246","US1NYGR0009",42.2959,-73.8327,61.9,"ATHENS 2.2 NNW"
"247","US1NYGR0013",42.1388,-74.087,641.9,"TANNERSVILLE 4.5 SSE"
"248","US1NYHM0001",43.4513,-74.4712,524.9,"SPECULATOR 10.0 SSW"
"249","US1NYHM0002",43.7491,-74.7493,545.3,"INLET 2.2 ESE"
"250","US1NYHM0005",43.8731,-74.6326,551.4,"LONG LAKE 12.6 SW"
"251","US1NYHM0006",43.9715,-74.42,506.6,"LONG LAKE 0.1 SSE"
"252","US1NYHR0001",43.6945,-74.9864,556,"BISBY GATEHOUSE AT ALC"
"253","US1NYHR0004",43.0166,-75.0553,150.6,"ILION 0.8 WNW"
"254","US1NYHR0006",43.1051,-74.9732,219.2,"LITTLE FALLS 7.5 NW"
"255","US1NYHR0009",43.7052,-74.959,538.9,"OLD FORGE 0.8 SE"
"256","US1NYHR0010",43.0925,-74.7809,274.6,"DOLGEVILLE 0.7 SW"
"257","US1NYHR0012",43.1232,-74.7974,312.7,"DOLGEVILLE 1.9 NW"
"258","US1NYHR0016",43.0088,-75.0539,160.9,"ILION 0.7 WSW"
"259","US1NYJF0003",44.0092,-75.5652,235.9,"CARTHAGE 2.5 NE"
"260","US1NYJF0004",44.3402,-75.8478,107.9,"ALEXANDRIA BAY 3.5 E"
"261","US1NYJF0005",44.2294,-76.0956,80.8,"CLAYTON 0.6 SW"
"262","US1NYJF0007",44.175,-75.7914,135.3,"THERESA 2.8 S"
"263","US1NYJF0008",44.0194,-75.7655,189,"FELTS MILLS 0.1 NNW"
"264","US1NYJF0010",43.9819,-75.934,122.2,"WATERTOWN 1.3 WNW"
"265","US1NYJF0011",43.9616,-75.6271,238.7,"CARTHAGE 2.0 SW"
"266","US1NYJF0013",44.0094,-75.777,192.3,"BLACK RIVER 1.0 E"
"267","US1NYJF0019",43.9723,-75.6204,239.9,"CARTHAGE 1.2 SW"
"268","US1NYJF0020",43.9708,-75.909,151.8,"WATERTOWN 0.2 SSE"
"269","US1NYJF0026",43.7122,-76.0621,189.6,"MANNSVILLE 0.3 SE"
"270","US1NYJF0030",43.9749,-75.6164,240.8,"WEST CARTHAGE 0.3 ENE"
"271","US1NYJF0032",43.9669,-75.892,159.1,"WATERTOWN 1.0 ESE"
"272","US1NYJF0039",43.9941,-76.0222,97.2,"DEXTER 1.5 SE"
"273","US1NYKN0003",40.6194,-73.9859,7.9,"BROOKLYN 2.4 SW"
"274","US1NYKN0025",40.6846,-73.9867,5.5,"BROOKLYN 3.1 NW"
"275","US1NYLV0001",42.5321,-77.7554,462.1,"DANSVILLE 3.6 WSW"
"276","US1NYLV0002",42.9186,-77.7437,190.5,"AVON 0.5 NNE"
"277","US1NYLV0005",42.568,-77.679,458.7,"DANSVILLE 1.0 ENE"
"278","US1NYLV0008",42.7743,-77.6083,281.6,"HEMLOCK COOP"
"279","US1NYLW0001",43.5777,-75.3512,296,"PORT LEYDEN 0.7 SW"
"280","US1NYLW0002",44.0936,-75.3653,285.9,"HARRISVILLE 4.7 SSW"
"281","US1NYLW0003",43.5754,-75.4464,501.7,"CONSTABLEVILLE 1.2 NW"
"282","US1NYLW0004",43.853,-75.7154,448.1,"COPENHAGEN 3.5 SW"
"283","US1NYLW0005",43.8862,-75.4284,241.7,"BEAVER FALLS 0.1 SW"
"284","US1NYLW0009",43.6996,-75.4104,297.8,"GLENFIELD 0.9 SSW"
"285","US1NYLW0010",43.9831,-75.3675,317,"CROGHAN 6.2 N"
"286","US1NYMD0001",42.9167,-75.9,420.6,"CAZENOVIA 2.6 WSW"
"287","US1NYMD0002",43.0861,-75.6607,133.2,"ONEIDA 0.7 NNE"
"288","US1NYMD0005",43.0717,-75.756,166.4,"CANASTOTA 0.9 S"
"289","US1NYMD0008",43.1383,-75.8703,120.1,"LAKEPORT"
"290","US1NYMD0009",42.7398,-75.552,329.2,"EARLVILLE 0.4 W"
"291","US1NYMD0010",42.9,-75.8114,445.9,"CAZENOVIA 2.9 SE"
"292","US1NYMD0011",42.7614,-75.5554,332.5,"EARLVILLE 1.6 NNW"
"293","US1NYMD0014",42.9534,-75.6117,307.5,"MUNNSVILLE 2.0 SW"
"294","US1NYMD0016",43.033,-75.8348,208.2,"CHITTENANGO 2.1 ESE"
"295","US1NYMD0017",42.9414,-75.6446,397.8,"MORRISVILLE 3.0 N"
"296","US1NYMD0018",43.0823,-75.7476,127.7,"CANASTOTA 0.4 ESE"
"297","US1NYMD0020",43.0214,-75.5755,285.6,"MUNNSVILLE 3.3 N"
"298","US1NYMD0022",43.0801,-75.6686,172.2,"ONEIDA 0.4 NW"
"299","US1NYMD0023",43.0421,-75.7449,210.6,"CANASTOTA 3.0 S"
"300","US1NYMG0001",42.93,-74.6264,94.2,"FORT PLAIN 0.2 SE"
"301","US1NYMG0002",42.9643,-74.4756,291.4,"FONDA 5.2 W"
"302","US1NYMG0003",42.8643,-74.7214,320,"HESSVILLE 1.8 WSW"
"303","US1NYMR0001",43.1223,-77.4314,157,"FAIRPORT 1.6 NNE"
"304","US1NYMR0002",43.0414,-77.4516,228.9,"FAIRPORT 4.1 S"
"305","US1NYMR0004",43.1089,-77.4823,128.9,"EAST ROCHESTER 0.3 SE"
"306","US1NYMR0005",43.1305,-77.5202,106.1,"EAST ROCHESTER 2.1 NW"
"307","US1NYMR0007",43.302,-77.9432,100.3,"HAMLIN 1.1 WSW"
"308","US1NYMR0008",43.3652,-77.9883,79.9,"HAMLIN 5.5 NW"
"309","US1NYMR0012",43.1223,-77.8164,185.3,"NORTH CHILI 0.6 NW"
"310","US1NYMR0015",43.2161,-77.9525,117.7,"BROCKPORT 0.6 WNW"
"311","US1NYMR0016",43.1535,-77.4891,138.1,"ROCHESTER 6.6 E"
"312","US1NYMR0018",43.1309,-77.5107,97.5,"ROCHESTER 5.7 ESE"
"313","US1NYMR0020",43.1479,-77.5045,82.9,"ROCHESTER 5.8 ESE"
"314","US1NYMR0021",43.035,-77.4945,169.8,"PITTSFORD 4.0 SSE"
"315","US1NYMR0023",43.2036,-77.7031,131.1,"ROCHESTER 5.0 WNW"
"316","US1NYMR0024",43.2479,-77.4966,94.2,"WEBSTER 4.4 WNW"
"317","US1NYMR0026",43.2099,-77.4851,125,"WEBSTER 3.2 W"
"318","US1NYMR0028",43.2412,-77.3882,112.8,"WEBSTER 2.5 NE"
"319","US1NYMR0029",43.2199,-77.9124,147.2,"BROCKPORT 1.5 ENE"
"320","US1NYMR0032",43.1501,-77.804,186.8,"SPENCERPORT 2.6 S"
"321","US1NYMR0036",43.2142,-77.6432,122.5,"ROCHESTER 3.4 NNW"
"322","US1NYMR0042",43.1946,-77.7966,153.3,"SPENCERPORT 0.8 NE"
"323","US1NYMR0044",43.1677,-77.5449,125,"ROCHESTER 3.6 E"
"324","US1NYMR0047",43.1769,-77.7137,164.3,"ROCHESTER 5.0 W"
"325","US1NYMR0048",43.2015,-77.6196,124.4,"ROCHESTER 2.3 N"
"326","US1NYMR0050",43.2127,-77.481,119.8,"WEBSTER 3.0 W"
"327","US1NYMR0055",42.9701,-77.5657,199,"HONEOYE FALLS 1.7 NE"
"328","US1NYMR0056",43.3424,-77.9465,87.5,"HAMLIN 3.0 NNW"
"329","US1NYMR0057",43.1521,-77.8785,191.1,"CHURCHVILLE 3.5 N"
"330","US1NYMR0061",43.1134,-77.489,131.1,"EAST ROCHESTER 0.1 NNW"
"331","US1NYNG0002",43.0573,-78.8617,176.2,"NORTH TONAWANDA 1.0 NNE"
"332","US1NYNG0003",43.0558,-78.8699,175.9,"NORTH TONAWANDA 0.9 NNW"
"333","US1NYNG0006",43.1383,-78.8863,198.4,"SANBORN 0.2 NE"
"334","US1NYNG0008",43.1773,-78.6774,186.2,"LOCKPORT 1.1 ENE"
"335","US1NYNG0010",43.1829,-78.6441,195.1,"LOCKPORT 2.8 ENE"
"336","US1NYNG0012",43.1764,-78.6834,158.8,"LOCKPORT 0.8 NE"
"337","US1NYNG0017",43.101,-78.7083,178.6,"PENDLETON 1.4 NE"
"338","US1NYNG0018",43.0584,-78.8395,175.3,"NORTH TONAWANDA 1.7 NE"
"339","US1NYNG0022",43.083,-78.9046,176.2,"NIAGARA FALLS 5.7 E"
"340","US1NYNG0027",43.1898,-78.7442,139.6,"LOCKPORT 2.8 WNW"
"341","US1NYNG0029",43.0299,-78.8572,177.1,"NORTH TONAWANDA 1.1 SSE"
"342","US1NYNG0030",43.1521,-78.6534,195.7,"LOCKPORT 2.5 ESE"
"343","US1NYNG0032",43.0918,-78.6568,178.9,"RAPIDS 1.0 SW"
"344","US1NYNS0001",40.7623,-73.492,43.9,"BETHPAGE 0.9 NNW"
"345","US1NYNS0003",40.6335,-73.627,2.7,"OCEANSIDE 0.5 E"
"346","US1NYNS0006",40.7245,-73.5086,27.1,"LEVITTOWN 0.2 E"
"347","US1NYNS0007",40.723,-73.711,24.1,"FLORAL PARK 0.4 W"
"348","US1NYNS0009",40.8704,-73.5717,34.1,"MILL NECK 1.1 SW"
"349","US1NYNS0014",40.6623,-73.678,7,"LYNBROOK 0.3 NW"
"350","US1NYNS0016",40.6552,-73.4756,2.4,"MASSAPEQUA 0.9 SSW"
"351","US1NYNS0018",40.7687,-73.5017,45.7,"HICKSVILLE 1.3 ENE"
"352","US1NYNS0022",40.7198,-73.6909,26.2,"FLORAL PARK 0.7 ESE"
"353","US1NYNS0024",40.6972,-73.516,14.9,"NORTH WANTAGH 0.4 WSW"
"354","US1NYNS0027",40.8392,-73.6803,52.1,"PORT WASHINGTON 0.8 N"
"355","US1NYNS0028",40.6679,-73.5549,6.7,"MERRICK 1.2 N"
"356","US1NYNS0030",40.7214,-73.4842,22.9,"PLAINEDGE 0.4 WSW"
"357","US1NYNS0032",40.8813,-73.5813,31.1,"LOCUST VALLEY 0.3 E"
"358","US1NYNS0034",40.6668,-73.5054,4.3,"WANTAGH 0.3 ESE"
"359","US1NYNS0035",40.6571,-73.6978,3.7,"VALLEY STREAM 0.6 SE"
"360","US1NYNS0036",40.787,-73.5133,54.9,"SYOSSET 2.0 SSW"
"361","US1NYNS0037",40.6833,-73.5038,10.4,"WANTAGH 1.1 NNE"
"362","US1NYNS0040",40.6435,-73.6095,4.6,"BALDWIN 1.3 S"
"363","US1NYNS0041",40.6622,-73.6639,7.3,"LYNBROOK 0.6 ENE"
"364","US1NYNS0042",40.7691,-73.6475,43.3,"ALBERTSON 0.2 SSE"
"365","US1NYNS0043",40.7859,-73.4669,56.7,"PLAINVIEW 0.4 ENE"
"366","US1NYNS0045",40.7475,-73.6645,34.4,"NEW HYDE PARK 1.6 NE"
"367","US1NYNS0046",40.6981,-73.4499,10.7,"MASSAPEQUA PARK 1.2 N"
"368","US1NYOD0001",43.4783,-75.1696,440.4,"BOONVILLE 8.0 E"
"369","US1NYOD0002",43.3733,-75.5384,335.3,"POINT ROCK 0.6 SE"
"370","US1NYOD0003",43.3167,-75.4458,311.5,"STOKES CORNER 1.4 NE"
"371","US1NYOD0004",43.4833,-75.3333,345.9,"BOONVILLE 0.2 NW"
"372","US1NYOD0005",43.3246,-75.3787,411.5,"WESTERNVILLE 2NW"
"373","US1NYOD0006",43.3333,-75.7667,196.9,"CAMDEN 1.0 WSW"
"374","US1NYOD0007",43.2363,-75.2858,179.8,"HOLLAND PATENT 1.5 WSW"
"375","US1NYOD0008",43.158,-75.4621,168.9,"ROME 4.9 SSE"
"376","US1NYOD0009",43.2167,-75.2833,166.1,"HOLLAND PATENT 2.2 SW"
"377","US1NYOD0011",43.0859,-75.5423,187.1,"VERNON 0.4 NNW"
"378","US1NYOD0014",43.1658,-75.2451,276.1,"WHITESBORO 3.9 NE"
"379","US1NYOD0016",43.2552,-75.1641,225.6,"BARNEVELD 1.8 SE"
"380","US1NYOD0017",43.0614,-75.2914,216.7,"NEW HARTFORD 0.7 S"
"381","US1NYOD0019",43.0618,-75.2899,211.8,"NEW HARTFORD 0.8 S"
"382","US1NYOD0023",43.1712,-75.6828,120.1,"DURHAMVILLE 3.5 NNW"
"383","US1NYOD0026",43.3018,-75.4393,189.3,"AVA 8.0 S"
"384","US1NYOD0040",43.4527,-75.7342,339.2,"CAMDEN 8.1 N"
"385","US1NYOD0042",43.1002,-75.3294,167,"WHITESBORO 2.3 SW"
"386","US1NYOD0043",43.2471,-75.2775,237.4,"HOLLAND PATENT 1.1 WNW"
"387","US1NYOD0045",43.2406,-75.4503,149.7,"ROME 2.2 ENE"
"388","US1NYOD0047",43.3515,-75.4534,384.4,"AVA 4.8 SSE"
"389","US1NYOD0051",43.4767,-75.3842,387.1,"BOONVILLE 2.7 W"
"390","US1NYOD0052",43.1952,-75.5509,143.6,"ROME 3.7 SW"
"391","US1NYOD0060",42.9955,-75.2885,432.8,"SAUQUOIT 1.6 WSW"
"392","US1NYOD0061",43.2241,-75.7471,116.4,"SYLVAN BEACH 1.6 NW"
"393","US1NYOG0002",43.0333,-76.1,192,"DE WITT 1.4 WSW"
"394","US1NYOG0003",43,-75.9667,212.1,"MANLIUS 0.8 E"
"395","US1NYOG0004",42.79,-76.14,369.4,"TULLY 1.7 WSW"
"396","US1NYOG0005",43.0333,-76.2333,206,"FAIRMOUNT 0.9 SE"
"397","US1NYOG0006",43.1167,-76.2667,129.5,"VILLAGE GREEN 2.6 ESE"
"398","US1NYOG0008",43.1,-76.1667,129.8,"MATTYDALE 1.0 W"
"399","US1NYOG0010",43.0396,-76.3283,247.5,"CAMILLUS 1.0 W"
"400","US1NYOG0011",42.8,-76.11,396.2,"TULLY 0.2 NW"
"401","US1NYOG0012",43.2,-76.26,115.8,"CLAY 4.6 NW"
"402","US1NYOG0013",43.1873,-76.0946,118.9,"CICERO 1.6 NE"
"403","US1NYOG0014",43.13,-76.3,128.6,"VILLAGE GREEN 0.7 ESE"
"404","US1NYOG0015",43.1369,-76.2083,135,"LIVERPOOL 2.1 N"
"405","US1NYOG0016",42.7971,-76.1054,381.6,"TULLY 0.1 ESE"
"406","US1NYOG0020",43.0284,-76.1212,178.3,"SYRACUSE 1.4 SE"
"407","US1NYOG0025",43.0322,-76.0675,140.8,"DEWITT 0.5 SE"
"408","US1NYOG0026",43.2322,-76.1188,116.4,"BREWERTON 1.2 E"
"409","US1NYOG0028",43.2283,-76.1133,118.9,"BREWERTON 1.5 ESE"
"410","US1NYOG0030",43.0225,-76.1025,188.4,"SYRACUSE 2.4 ESE"
"411","US1NYOG0031",42.9826,-76.3091,325.5,"MARCELLUS 1.6 E"
"412","US1NYOG0037",43.0128,-76.3159,256.9,"MARCELLUS 2.3 NNE"
"413","US1NYOG0038",43.0338,-76.03,149.4,"FAYETTEVILLE 1.6 W"
"414","US1NYOG0040",42.9253,-76.0328,395.9,"POMPEY 2.0 NNW"
"415","US1NYOG0043",42.7993,-76.0938,389.5,"TULLY 0.7 E"
"416","US1NYOG0045",43.1682,-76.2283,118.6,"LIVERPOOL 4.4 NNW"
"417","US1NYOG0046",43.1951,-76.2883,118.9,"BALDWINSVILLE 3.5 NE"
"418","US1NYOG0048",43.0586,-76.2098,154.5,"SOLVAY 0.1 ENE"
"419","US1NYOG0050",43.1417,-76.2272,119.2,"LIVERPOOL 2.6 NNW"
"420","US1NYOG0051",43.1356,-76.1379,124.4,"NORTH SYRACUSE 0.4 WNW"
"421","US1NYOG0052",43.0015,-76.1395,131.1,"SYRACUSE 2.7 S"
"422","US1NYOG0056",42.8326,-75.9822,389.2,"FABIUS 0.3 SE"
"423","US1NYOG0057",42.8126,-76.0448,407.5,"TULLY 3.4 ENE"
"424","US1NYOG0061",42.9554,-76.4336,285.6,"SKANEATELES 0.8 NNW"
"425","US1NYOG0062",43.0893,-76.341,136.9,"WARNERS 0.7 WNW"
"426","US1NYOG0066",43.1674,-76.1456,121,"CLAY 2.0 SE"
"427","US1NYOL0001",43.2273,-78.3882,151.8,"MEDINA 0.5 N"
"428","US1NYOL0002",43.3562,-78.2551,85.6,"WATERPORT 2.7 N"
"429","US1NYOL0003",43.313,-78.1361,112.5,"KENT 1.0 S"
"430","US1NYOL0004",43.2637,-78.2186,142.6,"ALBION 1.9 NW"
"431","US1NYOL0005",43.223,-78.3954,164.6,"MEDINA 0.4 WNW"
"432","US1NYON0004",43.0066,-77.1185,166.1,"PHELPS 4.4 NW"
"433","US1NYON0007",42.8533,-77.2981,286.5,"CANANDAIGUA 2.6 SSW"
"434","US1NYON0011",42.7877,-77.1315,286.5,"GORHAM 0.8 S"
"435","US1NYON0015",42.8766,-77.0308,219.2,"GENEVA COOP"
"436","US1NYOR0002",41.4469,-74.0214,50.9,"CORNWALL ON HUDSON 0.6 NNW"
"437","US1NYOR0003",41.473,-74.5513,320.3,"OTISVILLE 0.6 WNW"
"438","US1NYOR0004",41.2684,-74.416,189.3,"WARWICK 3.2 WNW"
"439","US1NYOR0006",41.3014,-74.167,253,"MONROE 1.7 SE"
"440","US1NYOR0015",41.374,-74.6845,142.3,"PORT JERVIS 0.4 SE"
"441","US1NYOR0017",41.588,-74.3577,126.8,"PINE BUSH 3.4 WSW"
"442","US1NYOR0018",41.541,-74.1879,125.9,"WALDEN 1.3 S"
"443","US1NYOR0019",41.189,-74.3265,195.1,"GREENWOOD LAKE 3.0 SW"
"444","US1NYOS0001",43.5964,-76.0373,191.4,"LACONA 3.6 SSE"
"445","US1NYOS0003",43.4437,-76.4052,139,"OSWEGO 5.0 ESE"
"446","US1NYOS0006",43.465,-76.5194,75.9,"OSWEGO 0.9 WNW"
"447","US1NYOS0008",43.3323,-76.2666,140.2,"PHOENIX 7.1 NNE"
"448","US1NYOS0013",43.6392,-75.8825,395.9,"REDFIELD 7.9 NNW"
"449","US1NYOS0015",43.3977,-76.4796,107,"MINETTO 0.1 SE"
"450","US1NYOS0016",43.331,-76.27,136.6,"PHOENIX 7.0 NNE"
"451","US1NYOS0020",43.3165,-76.4185,121,"FULTON 0.2 W"
"452","US1NYOS0021",43.57,-76.1195,87.5,"PULASKI 0.5 NE"
"453","US1NYOS0024",43.4228,-76.5086,116.4,"OSWEGO 2.5 S"
"454","US1NYOS0025",43.3242,-76.4178,104.9,"FULTON 0.5 NNW"
"455","US1NYOS0026",43.4194,-76.2738,133.8,"MEXICO 3.6 SSW"
"456","US1NYOT0001",42.4309,-75.3047,548.6,"UNADILLA 7.2 N"
"457","US1NYOT0002",42.6952,-74.93,374.9,"COOPERSTOWN 0.3 S"
"458","US1NYOT0003",42.6644,-74.9587,359.1,"COOPERSTOWN 2.8 SSW"
"459","US1NYOT0004",42.8167,-75.2333,323.1,"BRIDGEWATER 4.3 SSE"
"460","US1NYOT0005",42.5555,-75.1265,533.4,"LAURENS 2.5 NW"
"461","US1NYOT0008",42.3235,-75.3643,315.2,"SIDNEY 2.1 NE"
"462","US1NYOT0009",42.8525,-74.9775,411.5,"RICHFIELD SPRINGS 0.5 ESE"
"463","US1NYOT0011",42.6599,-75.05,406.9,"HARTWICK"
"464","US1NYOT0013",42.6332,-75.3195,345.3,"NEW BERLIN 1.0 NE"
"465","US1NYOT0014",42.544,-74.7657,512.1,"WORCESTER 4.0 SSW"
"466","US1NYOT0015",42.5721,-74.9797,366.7,"ONEONTA 7.0 NE"
"467","US1NYOT0018",42.7172,-74.7583,404.8,"CHERRY VALLEY 5.6 S"
"468","US1NYOT0022",42.6285,-75.0249,455.1,"MILFORD 4.8 NW"
"469","US1NYOT0024",42.6222,-74.6733,443.2,"EAST WORCESTER 0.1 SW"
"470","US1NYOT0025",42.5217,-75.196,519.4,"LAURENS 5.5 W"
"471","US1NYOT0026",42.7964,-74.9658,474.6,"RICHFIELD SPRINGS 4.1 SSE"
"472","US1NYOT0029",42.6369,-75.3109,364.5,"NEW BERLIN 1.5 NE"
"473","US1NYOT0030",42.5617,-75.0727,425.8,"MOUNT VISION 1.4 SW"
"474","US1NYPT0001",41.4969,-73.7017,249,"CARMEL HAMLET 5.8 N"
"475","US1NYPT0002",41.4807,-73.8911,260.3,"BEACON 4.2 ESE"
"476","US1NYPT0004",41.497,-73.8369,137.5,"COLD SPRING 8.1 NE"
"477","US1NYPT0008",41.3529,-73.7841,191.1,"MAHOPAC 2.5 WSW"
"478","US1NYQN0002",40.7145,-73.8819,32.3,"MIDDLE VILLAGE 0.5 SW"
"479","US1NYQN0026",40.7544,-73.8882,18,"JACKSON HEIGHTS 0.3 WSW"
"480","US1NYQN0027",40.7781,-73.8106,18,"SADDLE ROCK 3.4 WSW"
"481","US1NYRC0001",40.5421,-74.1476,10.7,"STATEN ISLAND 4.5 SSE"
"482","US1NYRC0002",40.5674,-74.1327,21.9,"STATEN ISLAND 1.4 SE"
"483","US1NYRL0001",41.0774,-74.0547,135,"CHESTNUT RIDGE 0.3 SSW"
"484","US1NYRL0003",41.0955,-74.0099,86.3,"NANUET 0.3 E"
"485","US1NYRL0004",41.1394,-74.0457,159.4,"SPRING VALLEY 1.7 N"
"486","US1NYRL0005",41.0835,-73.993,81.7,"WEST NYACK 1.3 WSW"
"487","US1NYRN0001",42.6391,-73.5698,192.9,"AVERILL PARK 0.9 WNW"
"488","US1NYRN0002",42.6397,-73.5715,193.9,"AVERILL PARK 1.0 WNW"
"489","US1NYRN0003",42.878,-73.5355,182,"VALLEY FALLS 2.1 SE"
"490","US1NYRN0004",42.8962,-73.3538,141.4,"HOOSICK FALLS 0.3 SSW"
"491","US1NYRN0005",42.773,-73.6374,163.7,"TROY 3.3 NE"
"492","US1NYRN0007",42.5284,-73.7476,49.4,"CASTLETON-ON-HUDSON 0.3 SSE"
"493","US1NYRN0013",42.7904,-73.5623,209.7,"TROY 6.9 NE"
"494","US1NYRN0014",42.6666,-73.6427,177.1,"WYANTSKILL 1.6 SSE"
"495","US1NYRN0015",42.7356,-73.6625,132.3,"TROY 0.7 E"
"496","US1NYRN0020",42.7593,-73.6528,135.9,"TROY 2.1 NNE"
"497","US1NYRN0024",42.4909,-73.5346,152.7,"NASSAU 4.2 ESE"
"498","US1NYSC0001",42.7817,-74.1708,392.9,"DELANSON 2.5 NNE"
"499","US1NYSC0002",42.8447,-73.9748,83.5,"SCOTIA 1.1 NW"
"500","US1NYSC0011",42.7938,-73.8639,100.6,"SCHENECTADY 3.3 E"
"501","US1NYSC0016",42.8465,-73.8992,82.9,"NISKAYUNA 2.0 N"
"502","US1NYSC0017",42.8316,-74.1152,389.2,"PATTERSONVILLE 4.2 SSW"
"503","US1NYSC0020",42.7886,-73.9667,102.1,"ROTTERDAM 0.9 NW"
"504","US1NYSF0002",40.93,-72.67,13.1,"RIVERHEAD 1.3 SSE"
"505","US1NYSF0003",40.8806,-72.9292,25,"MIDDLE ISLAND 0.8 ESE"
"506","US1NYSF0007",40.9364,-72.5778,6.1,"JAMESPORT 0.6 SSW"
"507","US1NYSF0016",40.9234,-73.3305,25.6,"NORTHPORT 1.6 NNE"
"508","US1NYSF0017",40.7351,-73.2212,4.3,"ISLIP 0.2 NW"
"509","US1NYSF0018",40.9299,-72.8988,34.4,"SHOREHAM 1.8 SSE"
"510","US1NYSF0019",40.8123,-72.7718,12.8,"EAST MORICHES 0.6 WNW"
"511","US1NYSF0024",40.7982,-73.15,20.1,"RONKONKOMA 1.4 WSW"
"512","US1NYSF0030",40.9562,-72.9197,60,"ROCKY POINT 2.0 N"
"513","US1NYSF0031",41.0497,-72.4302,5.8,"SOUTHOLD 0.7 S"
"514","US1NYSF0034",40.7234,-73.241,1.2,"BAY SHORE 0.5 ESE"
"515","US1NYSF0037",40.936,-72.9799,41.1,"MILLER PLACE 0.5 ENE"
"516","US1NYSF0039",40.7369,-73.0839,5.8,"SAYVILLE 0.0 N"
"517","US1NYSF0041",40.7279,-73.4341,20.7,"EAST FARMINGDALE 0.9 W"
"518","US1NYSF0042",41.069,-72.4243,8.8,"SOUTHOLD 0.7 NNE"
"519","US1NYSF0044",40.8374,-72.8668,29.3,"SHIRLEY 2.9 N"
"520","US1NYSF0049",40.7326,-73.0807,4.6,"SAYVILLE 1.0 SSE"
"521","US1NYSF0057",40.7719,-73.0357,14.9,"PATCHOGUE 1.1 NW"
"522","US1NYSF0058",40.8177,-73.0479,34.4,"HOLTSVILLE 0.3 N"
"523","US1NYSF0059",40.7763,-73.1119,22.9,"BOHEMIA 0.5 ENE"
"524","US1NYSF0060",40.7507,-73.028,5.2,"BLUE POINT 0.4 E"
"525","US1NYSF0061",40.8917,-73.3831,53.6,"CENTERPORT 0.9 SW"
"526","US1NYSF0062",40.6726,-73.3839,3.7,"COPIAGUE 0.4 ENE"
"527","US1NYSF0063",40.8408,-73.1225,31.7,"LAKE GROVE 1.2 SSW"
"528","US1NYSF0065",40.7036,-73.3054,5.2,"WEST ISLIP 0.6 SW"
"529","US1NYSF0069",40.8697,-73.1708,44.2,"SMITHTOWN 2.5 ENE"
"530","US1NYSF0070",41.0496,-72.3622,4.6,"SHELTER ISLAND HEIGHTS 2.1 SSW"
"531","US1NYSF0073",40.726,-73.2728,10.4,"BRIGHTWATERS 0.7 NNW"
"532","US1NYSF0074",40.7472,-73.1966,7.9,"ISLIP TERRACE 0.5 W"
"533","US1NYSF0075",40.7599,-73.3893,27.1,"WHEATLEY HEIGHTS 1.0 WSW"
"534","US1NYSF0076",40.9256,-73.0997,46.6,"SETAUKET-EAST SETAUKET 0.3 SSE"
"535","US1NYSF0077",40.829,-73.1643,31.1,"NESCONSET 1.4 SSW"
"536","US1NYSF0078",40.8339,-73.3037,48.2,"COMMACK 1.3 SW"
"537","US1NYSF0079",40.8304,-73.2285,13.4,"SMITHTOWN 2.0 SSW"
"538","US1NYSF0080",40.8239,-72.6947,10.1,"REMSENBURG-SPEONK 0.9 NE"
"539","US1NYSF0083",40.7669,-73.4348,35.1,"MELVILLE 1.6 SW"
"540","US1NYSF0084",40.8853,-73.0669,31.1,"CENTEREACH 1.3 NE"
"541","US1NYSF0085",40.7516,-73.0092,1.2,"PATCHOGUE 0.9 SE"
"542","US1NYSF0089",40.6689,-73.4183,3.7,"AMITYVILLE 0.1 WSW"
"543","US1NYSF0090",40.9351,-73.0252,44.2,"MOUNT SINAI 0.4 SW"
"544","US1NYSF0091",40.8023,-72.9605,24.4,"MEDFORD 1.9 SE"
"545","US1NYSF0092",40.6772,-73.4103,6.1,"AMITYVILLE 0.6 NNE"
"546","US1NYSF0100",40.92,-73.0694,53.6,"PORT JEFFERSON STATION 0.3 SSW"
"547","US1NYSF0101",40.7223,-73.1802,3,"EAST ISLIP 0.4 ESE"
"548","US1NYSF0103",40.8958,-72.8539,21,"RIDGE 1.8 SE"
"549","US1NYSF0104",40.9648,-72.8494,17.1,"WADING RIVER 2.0 NW"
"550","US1NYSF0109",40.8347,-73.2924,37.2,"COMMACK 0.8 SSW"
"551","US1NYSF0110",40.7627,-73.1776,14.3,"ISLIP TERRACE 1.1 NNE"
"552","US1NYSF0114",41.2631,-72.0164,13.7,"FISHERS ISLAND 0.5 NE"
"553","US1NYSF0115",40.8437,-73.0532,53.3,"FARMINGVILLE 0.5 W"
"554","US1NYSH0001",42.6805,-74.599,373.1,"COBLESKILL 5.7 W"
"555","US1NYSH0003",42.5973,-74.5931,647.4,"SUMMIT 1.3 NNW"
"556","US1NYSL0002",44.7001,-75.4832,87.2,"OGDENSBURG 0.4 ENE"
"557","US1NYSL0003",44.7737,-74.8157,103.9,"WINTHROP 2.0 SW"
"558","US1NYSL0006",44.6115,-74.9719,171,"HANNAWA FALLS 0.1 SW"
"559","US1NYSL0008",44.6871,-75.4894,85.3,"OGDENSBURG 0.8 SSE"
"560","US1NYSL0009",44.3365,-75.2617,219.5,"EDWARDS 0.9 NW"
"561","US1NYSL0010",44.6891,-75.4864,85,"OGDENSBURG 1.6 SW"
"562","US1NYSL0012",44.4315,-75.4696,135.3,"GOUVERNEUR 6.6 N"
"563","US1NYSL0013",44.4142,-75.7565,109.4,"HAMMOND 3.8 SW"
"564","US1NYSN0002",42.75,-76.8167,213.1,"OVID 5.2 N"
"565","US1NYSN0006",42.5844,-76.7232,348.1,"INTERLAKEN 2.4 S"
"566","US1NYSR0002",43.054,-73.8127,100,"SARATOGA SPRINGS 2.0 WSW"
"567","US1NYSR0003",43.097,-73.9069,211.8,"MILTON 5.2 NNW"
"568","US1NYSR0004",43.0603,-73.7801,94.5,"SARATOGA SPRINGS 0.5 S"
"569","US1NYSR0006",43.2003,-73.6755,90.2,"GANSEVOORT 1.3 WNW"
"570","US1NYSR0007",43.0438,-73.93,125.9,"BALLSTON SPA 4.7 WNW"
"571","US1NYSR0008",42.9455,-73.7869,60.7,"MECHANICVILLE 5.7 NW"
"572","US1NYSR0011",43.2944,-74.0881,378,"EDINBURG 4.7 NNE"
"573","US1NYSR0013",42.7973,-73.6826,50.6,"WATERFORD 0.4 NNW"
"574","US1NYSR0014",43.1025,-73.8397,170.4,"SARATOGA SPRINGS 3.9 NW"
"575","US1NYSR0015",43.008,-73.8031,97.8,"MALTA 2.6 NNW"
"576","US1NYSR0016",42.99,-73.8,110.6,"BALLSTON SPA 2.9 ESE"
"577","US1NYSR0022",43.1268,-73.8786,183.8,"GREENFIELD CENTER 1.6 W"
"578","US1NYSR0023",43.1316,-73.7372,103.6,"WILTON 3.4 S"
"579","US1NYSR0027",42.7882,-73.6798,9.8,"WATERFORD 0.2 S"
"580","US1NYSR0029",42.8213,-73.7855,88.1,"CLIFTON PARK 2.7 S"
"581","US1NYSR0033",43.0087,-73.8425,85.6,"BALLSTON SPA 0.5 ENE"
"582","US1NYSR0035",42.9776,-73.7375,101.2,"ROUND LAKE 4.1 NE"
"583","US1NYSR0036",42.9206,-73.8278,102.7,"COUNTRY KNOLLS 1.2 WNW"
"584","US1NYSR0039",42.9665,-73.7777,104.2,"ROUND LAKE 2.2 NNE"
"585","US1NYST0002",42.2211,-77.0251,474,"PAINTED POST 5.3 NE"
"586","US1NYST0003",42.0567,-77.0485,527.3,"SOUTH CORNING 4.7 S"
"587","US1NYST0004",42.1404,-76.9703,285,"BIG FLATS 2.0 W"
"588","US1NYST0005",42.4583,-77.4113,457.2,"AVOCA 3.5 N"
"589","US1NYST0006",42.2374,-77.1543,527,"CAMPBELL 2.5 ENE"
"590","US1NYST0009",42.4074,-77.2267,231.6,"HAMMONDSPORT 0.2 WSW"
"591","US1NYST0010",42.2167,-77.2167,451.1,"SAVONA 4.7 S"
"592","US1NYST0011",42.2333,-77.2667,524.3,"SAVONA 4.1 SSW"
"593","US1NYST0012",42.0167,-77.05,527.9,"CATON 2.8 SSW"
"594","US1NYST0013",42.3167,-77.4833,490.7,"CANISTEO 7.0 ENE"
"595","US1NYST0014",42.1,-77.05,457.2,"SOUTH CORNING 1.8 SSW"
"596","US1NYST0016",42.1432,-77.0521,278,"CORNING 0.4 SE"
"597","US1NYST0019",42.5649,-77.4839,410,"COHOCTON 4.5 N"
"598","US1NYST0023",42.3471,-77.474,510.8,"AVOCA 5.0 SSW"
"599","US1NYST0024",42.4213,-77.1693,385,"HAMMONDSPORT 2.9 ENE"
"600","US1NYST0026",42.5729,-77.4532,419.7,"ATLANTA 1.3 NW"
"601","US1NYST0028",42.3257,-77.6509,346.6,"HORNELL 0.5 E"
"602","US1NYST0029",42.3431,-77.3188,341.4,"BATH 0.4 N"
"603","US1NYST0030",42.1573,-77.06,286.2,"CORNING 0.7 NNW"
"604","US1NYST0031",42.332,-77.166,337.4,"SAVONA 4.4 NE"
"605","US1NYST0033",42.3397,-77.2367,503.5,"BATH 4.2 E"
"606","US1NYST0035",42.2674,-77.4133,519.4,"BATH 6.8 SW"
"607","US1NYST0037",42.2053,-77.062,453.8,"CORNING 4.0 N"
"608","US1NYST0040",42.069,-77.1674,331.3,"PAINTED POST 7.6 SSW"
"609","US1NYSV0001",41.8162,-74.7447,563.9,"LIBERTY 1.3 N"
"610","US1NYSV0003",41.82,-74.99,350.5,"JEFFERSONVILLE 4.1 NW"
"611","US1NYSV0004",41.6549,-74.6793,449.9,"MONTICELLO 0.5 ENE"
"612","US1NYSV0005",41.6326,-74.5604,474.6,"ROCK HILL 2.0 NE"
"613","US1NYSV0006",41.85,-75.1333,267.9,"LONG EDDY"
"614","US1NYSV0007",41.5998,-74.9828,323.7,"NARROWSBURG 4.1 ESE"
"615","US1NYSV0008",41.5739,-74.4871,163.7,"WURTSBORO 0.2 SSW"
"616","US1NYSV0009",41.6501,-74.5884,401.1,"GLEN WILD 0.3 SSW"
"617","US1NYSV0014",41.8881,-74.788,560.8,"LIVINGSTON MANOR 2.0 ESE"
"618","US1NYSY0001",42.3907,-76.7176,426.1,"SMITH VALLEY 1.9 SE"
"619","US1NYSY0002",42.3501,-76.8492,137.8,"MONTOUR FALLS 0.2 NW"
"620","US1NYSY0003",42.2923,-76.7249,354.8,"CAYUTA 1.6 NW"
"621","US1NYSY0005",42.3326,-76.7581,362.1,"ODESSA 3.4 ENE"
"622","US1NYSY0006",42.4177,-76.9425,434.3,"WATKINS GLEN 4.6 NW"
"623","US1NYSY0007",42.351,-76.9735,437.7,"WATKINS GLEN 5.8 WSW"
"624","US1NYSY0008",42.4153,-77.0874,335,"BRADFORD 3.2 NNE"
"625","US1NYSY0009",42.4147,-76.8326,315.8,"BURDETT 0.8 ESE"
"626","US1NYSY0010",42.3811,-76.9445,449.3,"WATKINS GLEN 3.9 W"
"627","US1NYSY0011",42.5221,-76.8558,331.9,"DUNDEE 6.2 E"
"628","US1NYSY0012",42.4981,-76.8715,281,"DUNDEE 5.7 ESE"
"629","US1NYTG0002",42.1333,-76.5333,402.9,"VAN ETTEN 4.6 SSE"
"630","US1NYTG0003",42.05,-76.1167,277.4,"APALACHIN 3.0 ESE"
"631","US1NYTG0004",42.2833,-76.15,429.8,"NEWARK VALLEY 4.6 NNE"
"632","US1NYTG0005",42.3346,-76.1899,335.3,"BERKSHIRE 2.0 N"
"633","US1NYTG0007",42.1167,-76.2833,332.2,"OWEGO 1.3 NW"
"634","US1NYTG0008",42.0529,-76.1199,315.2,"APALACHIN 2.8 ESE"
"635","US1NYTG0009",42.2667,-76.3,423.7,"CANDOR 3.3 NE"
"636","US1NYTG0015",42.3191,-76.2194,470.9,"BERKSHIRE 1.9 ENE"
"637","US1NYTG0017",42.0512,-76.1236,296.9,"APALACHIN 2.6 SE"
"638","US1NYTG0018",42.034,-76.4002,245.1,"SMITHBORO 0.1 NE"
"639","US1NYTG0019",42.1246,-76.2213,359.4,"OWEGO 2.5 ENE"
"640","US1NYTG0020",42.2531,-76.3378,336.2,"CANDOR 1.8 N"
"641","US1NYTG0026",42.2343,-76.3476,274.9,"CANDOR 0.7 NW"
"642","US1NYTM0001",42.6203,-76.4935,331.9,"LANSING 8.9 N"
"643","US1NYTM0002",42.5666,-76.57,259.1,"LANSING 6.6 NW"
"644","US1NYTM0003",42.4317,-76.4886,198.1,"ITHACA 1.1 SE"
"645","US1NYTM0004",42.5913,-76.372,315.2,"GROTON 0.5 NW"
"646","US1NYTM0005",42.5253,-76.3218,327.1,"FREEVILLE 1.5 NE"
"647","US1NYTM0006",42.352,-76.3184,484.6,"CAROLINE CENTER 0.1 SE"
"648","US1NYTM0007",42.5844,-76.3549,359.7,"GROTON 0.6 ESE"
"649","US1NYTM0008",42.4383,-76.6167,408.4,"ENFIELD 0.8 ENE"
"650","US1NYTM0010",42.5487,-76.3398,370,"FREEVILLE 2.6 N"
"651","US1NYTM0012",42.4087,-76.4835,362.1,"SOUTH HILL 0.4 ESE"
"652","US1NYTM0014",42.3736,-76.3378,509.9,"SLATERVILLE SPRINGS 1.0 S"
"653","US1NYTM0015",42.3223,-76.5899,487.1,"NEWFIELD 2.5 S"
"654","US1NYTM0016",42.3949,-76.4105,292.9,"EAST ITHACA 3.6 SE"
"655","US1NYTM0017",42.4972,-76.5803,305.1,"ITHACA 2.6 NW"
"656","US1NYTM0018",42.4191,-76.3733,353.9,"EAST ITHACA 4.7 E"
"657","US1NYTM0019",42.3858,-76.5007,347.5,"DANBY 2.5 NE"
"658","US1NYTM0021",42.5891,-76.6087,208.5,"TRUMANSBURG 4.3 NE"
"659","US1NYTM0022",42.4356,-76.4166,310.9,"EAST ITHACA 2.6 ENE"
"660","US1NYTM0023",42.5021,-76.418,352,"FREEVILLE 3.7 W"
"661","US1NYTM0024",42.5417,-76.6675,292.9,"TRUMANSBURG 0.4 WNW"
"662","US1NYTM0025",42.4876,-76.5002,249.9,"ITHACA 3.0 N"
"663","US1NYTM0026",42.3925,-76.4153,274,"BROOKTONDALE 1.3 NW"
"664","US1NYTM0027",42.5473,-76.3996,422.1,"GROTON 3.2 SSW"
"665","US1NYTM0028",42.4653,-76.5352,250.5,"ITHACA 2.2 NW"
"666","US1NYTM0030",42.3568,-76.3517,406,"BROOKTONDALE 2.7 SE"
"667","US1NYTM0031",42.393,-76.3409,345.6,"SLATERVILLE SPRINGS 0.5 ESE"
"668","US1NYTM0032",42.438,-76.5371,299.6,"ITHACA 1.8 WSW"
"669","US1NYTM0034",42.5446,-76.6569,0,"TRUMANSBURG 0.3 NNE"
"670","US1NYTM0036",42.4293,-76.4687,261.8,"ITHACA 2.0 ESE"
"671","US1NYTM0038",42.5421,-76.6687,302.1,"TRUMANSBURG 0.4 WNW"
"672","US1NYTM0039",42.4267,-76.6683,468.5,"ITHACA 8.5 W"
"673","US1NYUL0001",41.9286,-74.0195,57.9,"KINGSTON 1.1 W"
"674","US1NYUL0002",42.0204,-74.0977,157,"WOODSTOCK 1.4 SSE"
"675","US1NYUL0003",41.8809,-74.0574,54.3,"ROSENDALE VILLAGE 2.4 NNE"
"676","US1NYUL0004",42.0181,-74.0151,94.2,"RUBY 0.5 NE"
"677","US1NYUL0006",41.714,-74.0866,121.9,"NEW PALTZ 2.4 S"
"678","US1NYUL0008",41.9162,-74.1832,154.8,"STONE RIDGE 4.9 NNW"
"679","US1NYUL0009",41.6267,-73.9941,132.3,"MARLBORO 1.9 NNW"
"680","US1NYUL0012",41.6868,-74.1643,61.6,"GARDINER 0.9 WNW"
"681","US1NYUL0015",41.8516,-74.1516,117.7,"STONE RIDGE 0.7 N"
"682","US1NYUL0016",41.8608,-74.1075,90.8,"ROSENDALE VILLAGE 1.8 WNW"
"683","US1NYUL0017",41.6939,-74.0129,166.4,"HIGHLAND 2.9 WSW"
"684","US1NYUL0020",41.8677,-73.988,53.6,"ULSTER PARK 0.9 NNW"
"685","US1NYUL0021",41.843,-74.161,113.1,"STONE RIDGE 0.5 WNW"
"686","US1NYUL0022",41.961,-73.9958,55.8,"KINGSTON 2.1 N"
"687","US1NYUL0023",42.0046,-74.1109,185,"WEST HURLEY 0.1 S"
"688","US1NYUL0025",41.9162,-73.9929,34.7,"KINGSTON 1.0 SSE"
"689","US1NYUL0026",41.6858,-74.1737,68.6,"GARDINER 1.3 WNW"
"690","US1NYUL0028",41.8321,-74.3012,273.1,"KERHONKSON 3.7 N"
"691","US1NYUL0029",41.7149,-73.9684,116.7,"HIGHLAND 0.2 SW"
"692","US1NYUL0031",41.8815,-74.0563,50,"HURLEY 2.2 S"
"693","US1NYWC0003",41.0639,-73.7722,71,"WHITE PLAINS 3.1 NNW"
"694","US1NYWC0005",40.9639,-73.7232,24.1,"HARRISON 4.1 SSW"
"695","US1NYWC0006",41.3003,-73.57,151.5,"SOUTH SALEM 2.1 NW"
"696","US1NYWC0007",41.2649,-73.7899,174,"YORKTOWN HEIGHTS 0.6 SW"
"697","US1NYWC0009",40.904,-73.777,21.9,"NEW ROCHELLE 1.3 S"
"698","US1NYWC0011",41.2944,-73.9229,54.6,"PEEKSKILL 0.4 N"
"699","US1NYWC0015",41.133,-73.706,129.2,"ARMONK 0.4 E"
"700","US1NYWC0016",41.1648,-73.834,155.1,"BRIARCLIFF MANOR 1.8 NNE"
"701","US1NYWC0018",41.13,-73.7082,117.3,"ARMONK 0.3 SE"
"702","US1NYWC0019",41.0427,-73.8228,90.5,"ELMSFORD 0.8 SSW"
"703","US1NYWN0003",43.1919,-76.8379,115.2,"WOLCOTT 2.5 SSW"
"704","US1NYWN0004",43.2912,-76.8062,95.1,"WOLCOTT 4.8 N"
"705","US1NYWN0006",43.0795,-77.2526,151.8,"PALMYRA 1.6 NW"
"706","US1NYWN0007",43.2118,-77.3464,142,"ONTARIO 3.4 WSW"
"707","US1NYWN0009",43.1667,-77.1675,145.7,"MARION 2.0 NE"
"708","US1NYWN0010",43.125,-77.299,158.5,"WALWORTH 1.7 SW"
"709","US1NYWN0016",43.0457,-77.0688,129.5,"NEWARK 1.3 E"
"710","US1NYWN0018",43.052,-77.257,157.3,"MACEDON 2.6 ESE"
"711","US1NYWN0021",43.24,-77.2096,119.5,"WILLIAMSON 1.8 W"
"712","US1NYWN0023",43.0738,-76.9899,135,"LYONS 0.7 NNE"
"713","US1NYWR0003",43.3105,-73.7259,143.3,"GLENS FALLS 4.0 W"
"714","US1NYWR0004",43.2896,-73.719,123.1,"GLENS FALLS 4.0 WSW"
"715","US1NYWR0010",43.5178,-73.8107,202.4,"WARRENSBURG 2.1 WNW"
"716","US1NYWR0011",43.4318,-73.7147,135.9,"LAKE GEORGE 0.4 N"
"717","US1NYWR0013",43.3588,-73.6285,92.4,"QUEENSBURY 2.5 E"
"718","US1NYWY0002",42.8017,-78.0381,436.5,"WYOMING 2.9 SE"
"719","US1NYWY0007",42.7565,-78.2489,517.6,"VARYSBURG 3.1 E"
"720","US1NYWY0010",42.8206,-78.1481,473,"WYOMING COOP"
"721","US1NYWY0011",42.7058,-78.0937,454.5,"SILVER SPRINGS COOP"
"722","US1NYYT0001",42.55,-76.9333,426.7,"DUNDEE 2.9 NE"
"723","US1NYYT0003",42.502,-76.9242,256.6,"DUNDEE 3.1 ESE"
"724","US1NYYT0005",42.7326,-77.0766,332.2,"PENN YAN 5.1 NNW"
"725","US1NYYT0006",42.511,-76.9155,157.6,"DUNDEE 3.3 ESE"
"726","US1NYYT0007",42.5284,-76.9776,308.8,"DUNDEE 0.3 N"
"727","US1NYYT0008",42.6539,-77.266,286.5,"MIDDLESEX 3.5 S"
"728","US1NYYT0009",42.6042,-77.3007,347.2,"NAPLES 5.2 E"
"729","USC00300015",43.9,-76.0667,121.9,"ADAMS CTR"
"730","USC00300018",43.8167,-76.0167,195.1,"ADAMS"
"731","USC00300023",42.1014,-77.2344,304.5,"ADDISON"
"732","USC00300028",42.1167,-77.2167,373.4,"ADDISON 1 NNE"
"733","USC00300040",43.0167,-78.5,213.4,"AKRON"
"734","USC00300047",42.6461,-73.7472,0,"ALBANY"
"735","USC00300048",42.6925,-73.8308,89.3,"ALBANY NWFO UNIV"
"736","USC00300055",43.2631,-78.1986,148.1,"ALBION"
"737","USC00300063",42.4697,-73.9267,185,"ALCOVE DAM"
"738","USC00300070",42.9,-78.5,257.9,"ALDEN"
"739","USC00300077",44.3333,-75.9167,78.9,"ALEXANDRIA BAY 1 SW"
"740","USC00300085",42.25,-77.7583,520,"ALFRED"
"741","USC00300090",42.1,-78.5667,439.2,"ALLEGANY"
"742","USC00300093",42.1003,-78.7497,457.2,"ALLEGANY SP"
"743","USC00300136",41.2833,-73.75,116.1,"AMAWALK"
"744","USC00300156",42.9167,-74.2167,198.1,"AMSTERDAM 2 SW"
"745","USC00300159",42.9167,-74.1333,85,"AMSTERDAM LOCK 1O"
"746","USC00300167",42.2,-74.7833,488,"ANDES"
"747","USC00300175",42.15,-77.8,509,"ANDOVER"
"748","USC00300183",42.3108,-78.0231,449.6,"ANGELICA"
"749","USC00300208",43.35,-78.65,91.4,"APPLETON"
"750","USC00300220",42.5347,-78.4575,434.9,"ARCADE"
"751","USC00300237",42.1,-74.7167,442,"ARENA"
"752","USC00300242",43.25,-74.5167,519.1,"ARIETTA"
"753","USC00300246",42.4,-77.7167,494.1,"ARKPORT"
"754","USC00300254",42.1394,-74.6536,399.3,"ARKVILLE 2 W"
"755","USC00300259",42.4167,-79.25,384,"ARKWRIGHT"
"756","USC00300268",42.2667,-76.65,586.1,"ARNOT SCS"
"757","USC00300300",42.2667,-73.8333,51.8,"ATNENS"
"758","USC00300307",42.5333,-77.4667,393.2,"ATLANTA"
"759","USC00300317",42.8108,-78.3978,416.1,"ATTICA 7 SW"
"760","USC00300321",42.9328,-76.5447,234.7,"AUBURN"
"761","USC00300331",42.7339,-76.6592,253,"AURORA RSCH FARM"
"762","USC00300343",42.9203,-77.7558,166.1,"AVON"
"763","USC00300351",40.7167,-73.3667,14.9,"BABYLON"
"764","USC00300360",42.2833,-75.45,303,"BAINBRIDGE 2 E"
"765","USC00300364",40.9342,-72.7397,21.3,"BAITING HOLLOW"
"766","USC00300368",43.6167,-74.0333,481.9,"BAKERS MILLS"
"767","USC00300379",43.15,-76.3333,115.5,"BALDWINSVILLE"
"768","USC00300386",42.9333,-73.85,91.4,"BALLSTON LAKE"
"769","USC00300393",42.0333,-74.6,793.1,"BALSAM LAKE"
"770","USC00300412",43.3667,-78.4833,85,"BARKER 4 NE"
"771","USC00300424",43.8167,-75.8,463.3,"BARNES CORNERS"
"772","USC00300443",43.0297,-78.1683,278.3,"BATAVIA"
"773","USC00300448",42.3489,-77.3478,341.4,"BATH"
"774","USC00300452",43.1014,-73.4319,115.8,"BATTENVILLE"
"775","USC00300500",43.8869,-75.435,225.6,"BEAVER FALLS"
"776","USC00300505",42.6667,-78.3833,451.1,"BEAVER MEADOW"
"777","USC00300511",41.2333,-73.7167,131.1,"BEDFORD HILLS"
"778","USC00300540",42.1167,-75.1167,473,"BEERSTON"
"779","USC00300608",43.5317,-75.9525,201.2,"BENNETTS BRG"
"780","USC00300613",42.8561,-78.3958,379.5,"BENNINGTON"
"781","USC00300621",40.6,-73.9667,6.1,"BENSONHURST"
"782","USC00300641",42.6167,-73.3667,347.5,"BERLIN 5 S"
"783","USC00300652",42.7167,-73.3167,338.9,"BERLIN 3 ENE"
"784","USC00300654",42.6,-74.15,323.1,"BERNE 2 S"
"785","USC00300655",42.65,-74.1667,378,"BERNE 2 NW"
"786","USC00300658",42.5833,-74.1833,563.9,"BERNE 5 SW"
"787","USC00300668",43.8,-74.8667,536.4,"BIG MOOSE 3 SE"
"788","USC00300681",42.1,-75.9,260.3,"BINGHAMTON SUSQ RVR"
"789","USC00300684",42.2117,-75.9858,487.7,"BINGHAMTON WFO"
"790","USC00300706",44,-75.8167,161.8,"BLACK RIVER 1 SW"
"791","USC00300732",41.5311,-74.4803,396.2,"BLOOMINGBURG 2 SW"
"792","USC00300746",43.8667,-74.4333,670.9,"BLUE MTN LAKE 2 N"
"793","USC00300766",42.1225,-78.2064,545.6,"BOLIVAR"
"794","USC00300772",43.5667,-73.65,103.6,"BOLTON"
"795","USC00300774",44.1333,-75.3833,253,"BONAPARTE"
"796","USC00300780",43.5167,-75.3667,360,"BOONVILLE 2 N"
"797","USC00300785",43.4361,-75.3697,472.4,"BOONVILLE 4 SSW"
"798","USC00300795",42.8333,-75.5833,411.5,"BOUCKVILLE"
"799","USC00300799",42.2667,-74.7333,573,"BOVINA"
"800","USC00300808",41.45,-73.7333,171,"BOYDS CORNERS"
"801","USC00300816",42.3667,-77.1,335.9,"BRADFORD"
"802","USC00300817",42.3833,-77.1167,415.1,"BRADFORD 1 NW"
"803","USC00300828",43.9333,-74.85,518.2,"BRANDRETH"
"804","USC00300862",40.7833,-73.25,31.1,"BRENTWOOD"
"805","USC00300870",43.2386,-76.1964,114.9,"BREWERTON LOCK 23"
"806","USC00300878",41.4333,-73.6,189,"BREWSTER"
"807","USC00300889",40.9519,-72.2981,12.8,"BRIDGEHAMPTON"
"808","USC00300910",42.7481,-77.3425,286.5,"BRISTOL HARBOUR"
"809","USC00300921",42.7,-77.3833,366.1,"BRISTOL SPRINGS"
"810","USC00300929",43.0508,-74.1981,256,"BROADALBIN"
"811","USC00300937",43.2161,-77.9528,151.8,"BROCKPORT"
"812","USC00300957",42.8,-75.3333,396.2,"BROOKFIELD"
"813","USC00300958",40.6892,-73.955,15.2,"BROOKLYN"
"814","USC00300961",40.8369,-73.8494,11.9,"BRONX"
"815","USC00300981",44.2167,-75.0667,335.9,"BROWNS FALLS"
"816","USC00300985",41.95,-74.2167,164.9,"BROWN STN"
"817","USC00301010",42.8833,-78.8833,-999.9,"BUFFALO"
"818","USC00301011",42.9461,-78.8367,190.5,"BUFFALO 4NE"
"819","USC00301018",42.9333,-78.9,177.1,"BUFFALO #2"
"820","USC00301032",42.4167,-76.8333,313.9,"BURDETT 1 NE"
"821","USC00301040",44.9167,-74.2,222.8,"BURKE"
"822","USC00301052",42.8,-74.2667,154.8,"BURTONSVILLE"
"823","USC00301065",42.1667,-74.4,463.9,"BUSHNELLSVILLE 1 NE"
"824","USC00301068",42.9361,-73.4325,152.1,"BUSKIRK"
"825","USC00301079",41.9167,-74.6667,561.1,"BUTTERNUT BROOK"
"826","USC00301093",42.3167,-74.0167,92,"CAIRO"
"827","USC00301095",42.3167,-74.0331,149.4,"CAIRO 3 NW"
"828","USC00301101",41.7667,-75.05,244.1,"CALLICOON"
"829","USC00301102",41.8275,-74.9506,372.2,"CALLICOON CTR"
"830","USC00301103",41.7794,-75.0444,396.2,"CALLICOON 2"
"831","USC00301105",43.0539,-73.3619,154.8,"CAMBRIDGE"
"832","USC00301110",43.3306,-75.8417,176.8,"CAMDEN"
"833","USC00301136",42.4167,-73.4,360,"CANAAN 2 E"
"834","USC00301138",43.25,-74.5167,512.1,"CANADA LAKE"
"835","USC00301144",42.9167,-74.5833,92,"CANAJOHARIE"
"836","USC00301152",42.845,-77.2808,219.5,"CANANDAIGUA 3 S"
"837","USC00301156",42.4667,-77.7833,384,"CANASERAGA"
"838","USC00301160",43.0833,-75.7667,125,"CANASTOTA"
"839","USC00301168",42.1944,-76.3128,280.4,"CANDOR 2SE"
"840","USC00301170",42.3833,-78.1833,451.1,"CANEADEA DAM"
"841","USC00301173",42.2608,-77.6161,352,"CANISTEO 1 SW"
"842","USC00301196",44.1333,-76.3333,78,"CAPE VINCENT"
"843","USC00301207",41.4333,-73.6833,161.5,"CARMEL"
"844","USC00301211",41.4725,-73.655,207.3,"CARMEL 4N"
"845","USC00301220",43.6167,-73.3,74.1,"CARVERS FALLS"
"846","USC00301260",42.2333,-73.8667,75.9,"CATSKILL 1 N"
"847","USC00301265",42.9481,-76.7342,115.8,"CAYUGA LOCK #1"
"848","USC00301272",42.9167,-75.8667,381,"CAZENOVIA"
"849","USC00301288",42.2167,-73.7667,12.2,"CEDAR HILL"
"850","USC00301291",42.9333,-75.1167,384,"CEDARVILLE 1 N"
"851","USC00301292",42.9,-75.0833,445,"CEDARVILLE 3 SE"
"852","USC00301309",40.8839,-73.3722,9.1,"CENTERPORT"
"853","USC00301387",44.75,-74.2167,323.1,"CHASM FALLS"
"854","USC00301388",43.7592,-75.2997,390.4,"CHASES LAKE"
"855","USC00301391",42.3667,-73.6,128,"CHATHAM"
"856","USC00301395",42.2167,-79.4667,405.4,"CHAUTAUQUA"
"857","USC00301401",44.8786,-73.3953,47.9,"CHAZY"
"858","USC00301413",42.0025,-76.6383,250.5,"CHEMUNG"
"859","USC00301414",42.2333,-75.85,274.3,"CHENANGO FORKS"
"860","USC00301415",42.2167,-75.85,265.8,"CHENANGO FORKS 2 S"
"861","USC00301424",42.9097,-75.1108,402.3,"CHEPACHET"
"862","USC00301433",42.6167,-73.4167,427,"CHERRY PLAIN"
"863","USC00301434",42.6333,-73.35,335.9,"CHERRYPLAIN 2"
"864","USC00301436",42.8239,-74.7386,414.5,"CHERRY VALLEY 2 NNE"
"865","USC00301442",42.5833,-78.0167,332.2,"CHESTNUT LAWN"
"866","USC00301466",42.1667,-75.4,445,"CHINA"
"867","USC00301471",42.1,-75.3833,351.1,"CHINA 2"
"868","USC00301484",43.1,-77.8833,168.2,"CHURCHVILLE"
"869","USC00301492",42.5433,-75.8947,320,"CINCINNATUS"
"870","USC00301510",43.0167,-78.6167,176.8,"CLARENCE CENTER"
"871","USC00301521",41.9136,-74.5722,503.8,"CLARYVILLE"
"872","USC00301523",41.9167,-74.6,634,"CLARYVILLE 2 SW"
"873","USC00301541",43.2333,-75.8833,116.1,"CLEVELAND"
"874","USC00301580",43.0589,-76.8383,119.5,"CLYDE LOCK 26"
"875","USC00301589",42.6667,-74.5,292.9,"COBLESKILL"
"876","USC00301593",42.6833,-74.4833,274.3,"COBLESKILL"
"877","USC00301595",42.6672,-74.4425,356.3,"COBLESKILL 2 ESE"
"878","USC00301598",42.4667,-73.8,45.7,"COEYMANS"
"879","USC00301603",42.4667,-77.5,445,"COHOCTON SCS"
"880","USC00301615",42.0167,-74.2667,198.1,"COLD BROOK"
"881","USC00301618",40.8667,-73.4667,3,"COLD SPRING HARBOR"
"882","USC00301623",42.6631,-78.6831,312.4,"COLDEN 1 N"
"883","USC00301625",42.6472,-78.7111,467.9,"COLDEN 1W"
"884","USC00301664",44.5842,-74.9572,176.8,"COLTON 2 N"
"885","USC00301700",42.0333,-75.8,256.3,"CONKLIN"
"886","USC00301702",42.0639,-75.8103,260.9,"CONKLIN 2"
"887","USC00301708",43.3203,-73.9256,246.3,"CONKLINGVILLE DAM"
"888","USC00301713",43.3167,-73.9167,223.1,"CONKLINGVILLE DAM 2"
"889","USC00301723",44.9167,-74.3,128,"CONSTABLE 1 S"
"890","USC00301728",43.25,-76,116.1,"CONSTANTIA"
"891","USC00301732",43.3425,-76.0006,177.1,"CONSTANTIA 6N"
"892","USC00301752",42.7167,-74.9267,383.1,"COOPERSTOWN"
"893","USC00301761",42.1131,-73.5522,167.6,"COPAKE"
"894","USC00301765",43.9,-75.6833,381,"COPENHAGEN"
"895","USC00301771",43.25,-73.8333,165.2,"CORINTH"
"896","USC00301787",42.1342,-77.0692,349.6,"CORNING"
"897","USC00301792",42.0667,-77.05,499.9,"CORNING 5 SSW"
"898","USC00301794",42.1333,-77.15,317,"CORNING 5 W"
"899","USC00301799",42.6,-76.1833,344.1,"CORTLAND"
"900","USC00301850",41.9667,-74.8667,427,"CRAIGIE CLAIR"
"901","USC00301896",41.2667,-73.6833,73.2,"CROSS RIVER"
"902","USC00301904",41.35,-73.6667,67.1,"CROTON FALLS 1 NE"
"903","USC00301912",41.2333,-73.8,75.9,"CROTON LAKE"
"904","USC00301949",41.0167,-72.5,11.9,"CUTCHOGUE"
"905","USC00301966",44.7192,-73.7206,408.4,"DANNEMORA"
"906","USC00301974",42.565,-77.7175,201.2,"DANSVILLE"
"907","USC00301987",42.4667,-74.8,411.5,"DAVENPORT 2 E"
"908","USC00302001",40.8833,-73.7667,6.1,"DAVIDS ISLAND"
"909","USC00302020",44.5,-75.2667,136.9,"DEKALB JUNCTION"
"910","USC00302031",42.7672,-74.1711,299.9,"DELANSON 2NE"
"911","USC00302036",42.2533,-74.905,445,"DELHI 2 SE"
"912","USC00302039",42.3,-74.9333,509,"DELHI 1 NW"
"913","USC00302045",43.2667,-75.4333,171,"DELTA"
"914","USC00302047",43.2736,-75.4272,167.6,"DELTA DAM"
"915","USC00302060",42.0628,-75.4264,304.8,"DEPOSIT"
"916","USC00302071",42.7,-79,200.9,"DERBY 2 NW"
"917","USC00302079",42.8167,-75.8833,396.8,"DE RUYTER 4 N"
"918","USC00302091",40.8,-73.3,36.6,"DIX HILLS"
"919","USC00302129",41.0072,-73.8344,61,"DOBBS FERRY-ARDSLEY"
"920","USC00302137",43.0833,-74.7667,208.8,"DOLGEVILLE"
"921","USC00302143",43.75,-75.3333,304.8,"DONNATTSBURG"
"922","USC00302151",40.7211,-73.0908,1.5,"DOWLING CEECOM"
"923","USC00302164",42.0833,-75,338.9,"DOWNSVILLE"
"924","USC00302169",42.0772,-74.9828,365.8,"DOWNSVILLE DAM"
"925","USC00302197",42.4717,-79.3336,192.3,"DUNKIRK"
"926","USC00302234",43.75,-74.7667,548.9,"EAGLE BAY 3 SE"
"927","USC00302236",42.9331,-73.3667,115.8,"EAGLE BRG 2 SE"
"928","USC00302239",43.9167,-75.2,396.8,"EAGLE FALLS"
"929","USC00302277",42.9,-77.4333,265.2,"EAST BLOOMFIELD"
"930","USC00302282",41.4,-73.5833,139.9,"EAST BRANCH"
"931","USC00302286",42.4394,-73.5028,281.6,"EAST CHATHAM"
"932","USC00302291",40.9333,-73.8,36.9,"EASTCHESTER"
"933","USC00302302",42.2833,-74.9167,417.9,"EAST DELHI"
"934","USC00302351",42.7,-76.1167,451.1,"EAST HOMER"
"935","USC00302356",42.7167,-76.1167,476.1,"EAST HOMER 2"
"936","USC00302362",42.25,-74.1833,566.9,"EAST JEWETT"
"937","USC00302366",42.2356,-74.1433,606.9,"E JEWETT"
"938","USC00302454",42.3328,-75.2297,352,"E SIDNEY"
"939","USC00302462",42.9833,-73.55,134.1,"EASTON"
"940","USC00302506",42.65,-78.9,256,"EDEN"
"941","USC00302517",42.1333,-74.2333,506,"EDGEWOOD"
"942","USC00302526",42.6833,-75.25,359.7,"EDMESTON"
"943","USC00302547",43.0667,-78.1667,213.4,"ELBA"
"944","USC00302554",44.2139,-73.5986,186.2,"ELIZABETHTOWN"
"945","USC00302562",42.1667,-74.1667,686.1,"ELKA PARK"
"946","USC00302574",44.9131,-73.8222,289.6,"ELLENBURG DEPOT"
"947","USC00302582",41.7167,-74.4,106.7,"ELLENVILLE"
"948","USC00302587",41.7167,-74.4,106.7,"ELLENVILLE 2"
"949","USC00302599",42.85,-78.6333,236.2,"ELMA"
"950","USC00302610",42.0997,-76.8358,288.6,"ELMIRA"
"951","USC00302627",42.0858,-76.0878,252.1,"ENDICOTT"
"952","USC00302666",43.0167,-74.5333,238,"EPHRATAH"
"953","USC00302683",42.7667,-74.25,167.9,"ESPERANCE"
"954","USC00302686",42.45,-74.2833,335.3,"ESPERANCE 2 N"
"955","USC00302720",43.15,-74.9,445,"FAIRFIELD"
"956","USC00302760",40.75,-73.4333,24.1,"FARMINGDALE 2 NE"
"957","USC00302780",43.0333,-76.0167,161.5,"FAYETTEVILLE"
"958","USC00302829",41.9667,-75.1833,310.9,"FISHS EDDY"
"959","USC00302862",42.8333,-76.55,274.3,"FLEMING"
"960","USC00302868",40.7667,-73.8667,18.3,"FLUSHING"
"961","USC00302888",42.9667,-74.4167,136.9,"FONDA"
"962","USC00302917",43.4333,-75.2167,345,"FORESTPORT"
"963","USC00302934",44.0333,-75.7667,192,"FT DRUM"
"964","USC00302941",42.95,-74.2833,91.4,"FORT HUNTER"
"965","USC00302946",43.2667,-79.0667,79.9,"FORT NIAGARA"
"966","USC00302953",42.9383,-74.6228,93,"FT PLAIN"
"967","USC00302964",40.8,-73.8,18,"FT SCHUYLER"
"968","USC00303010",43.0667,-75.1167,125,"FRANKFORT LOCK 19"
"969","USC00303020",42.3333,-75.1667,408.4,"FRANKLIN"
"970","USC00303025",42.3294,-78.4636,484.6,"FRANKLINVILLE"
"971","USC00303033",42.4497,-79.312,231.6,"FREDONIA"
"972","USC00303038",42.3667,-74.0667,136.9,"FREEHOLD 2 NW"
"973","USC00303042",40.6667,-73.6,6.1,"FREEPORT"
"974","USC00303050",42.5192,-76.3311,320,"FREEVILLE 1 NE"
"975","USC00303065",42.1378,-78.2372,499.9,"FRIENDSHIP 7 SW"
"976","USC00303069",42.1908,-78.1458,473,"FRIENDSHIP"
"977","USC00303070",42.1667,-78.2,604.1,"FRIENDSHIP 5 SW"
"978","USC00303076",41.9667,-74.55,561.1,"FROST VALLEY"
"979","USC00303087",43.305,-76.3939,109.7,"FULTON"
"980","USC00303088",43.3242,-76.4186,102.4,"FULTON LOCK O-3"
"981","USC00303102",44.4333,-74.1667,537.1,"GABRIELS"
"982","USC00303124",42.7,-77.4,602,"GANNETT HILL"
"983","USC00303125",43.2,-73.65,75,"GANSEVOORT"
"984","USC00303128",43,-77.7833,171,"GARBUTT"
"985","USC00303138",41.6833,-74.15,97.5,"GARDINER 1 W"
"986","USC00303144",41.3458,-74.4872,140.2,"GARDNERVILLE"
"987","USC00303152",41.2167,-74,56.7,"GARNERVILLE"
"988","USC00303165",42.4833,-75.9333,402.3,"GEE BROOK HILLS"
"989","USC00303177",42.8833,-77,180.1,"GENEVA EXP STN"
"990","USC00303182",42.8833,-77.0167,189,"GENEVA SCS"
"991","USC00303184",42.8767,-77.0308,218.8,"GENEVA RSCH FARM"
"992","USC00303250",43.7117,-75.4258,329.2,"GLENFIELD 1W"
"993","USC00303251",42.0167,-74.1333,262.1,"GLENFORD"
"994","USC00303259",41.5167,-73.9333,83.8,"GLENHAM"
"995","USC00303281",43.3,-73.6667,118.9,"GLENS FALLS 2"
"996","USC00303284",43.3247,-73.6781,153.6,"GLENS FALLS FARM"
"997","USC00303289",43.3167,-73.65,107,"GLENS FALLS FIRE STN"
"998","USC00303299",43.2833,-73.6667,92,"GLENS FALLS FEEDER DAM"
"999","USC00303319",43.0492,-74.3592,246.9,"GLOVERSVILLE"
"1000","USC00303322",43.115,-74.4236,443.5,"GLOVERSVILLE 7NW (PECK LAKE)"
"1001","USC00303324",43.1,-74.4333,415.1,"GLOVERSVILLE PECKS PON"
"1002","USC00303346",44.3539,-75.5122,128,"GOUVERNEUR 3 NW"
"1003","USC00303352",42.4667,-78.95,231.3,"GOWANDA"
"1004","USC00303354",42.4833,-78.9333,265.2,"GOWANDA CORRECTIONAL"
"1005","USC00303360",42.7833,-73.4667,475.5,"GRAFTON"
"1006","USC00303365",41.85,-74.5333,292.6,"GRAHAMSVILLE"
"1007","USC00303373",42.3667,-74.4833,415.1,"GRAND GORGE"
"1008","USC00303381",42.9667,-78.9667,176.8,"GRAND ISLAND"
"1009","USC00303416",43.1333,-75.1167,342,"GRAVESVILLE 2 N"
"1010","USC00303444",42.3239,-75.7711,280.4,"GREENE"
"1011","USC00303452",43.1167,-73.8333,185.9,"GREENFIELD CTR"
"1012","USC00303464",41.1019,-72.3731,4.9,"GREENPORT PWR HOUSE"
"1013","USC00303468",43.1167,-73.5,129.5,"GREENWICH"
"1014","USC00303503",42.1667,-74.5333,688.8,"GRIFFIN CORNERS"
"1015","USC00303508",43.2242,-75.3997,143.9,"GRIFFISS INTERNATIONAL AIRPORT"
"1016","USC00303520",42.6667,-77.7667,177.1,"GROVELAND"
"1017","USC00303566",42.2333,-74.4833,665.1,"HALCOTT CENTRE"
"1018","USC00303567",42.2167,-74.4667,598,"HALCOTT CTR 2 NNE"
"1019","USC00303575",42,-75.3833,297.5,"HALE EDDY"
"1020","USC00303590",42.7517,-78.8911,185.9,"HAMBURG"
"1021","USC00303591",42.7275,-78.8811,234.7,"HAMBURG 3 W"
"1022","USC00303602",42.8167,-75.5333,369.1,"HAMILTON"
"1023","USC00303616",42.4,-77.2333,220.1,"HAMMONDSPORT"
"1024","USC00303617",42.4,-77.25,238,"HAMMONDSPORT 1 W"
"1025","USC00303619",42.4333,-77.15,396.2,"HAMMONDSPORT"
"1026","USC00303636",41.95,-75.2833,297.2,"HANCOCK"
"1027","USC00303662",44.5333,-73.5667,189.6,"HARKNESS"
"1028","USC00303669",42.15,-75.6167,390.1,"HARPURSVILLE"
"1029","USC00303714",42.0167,-75.1167,328.9,"HARVARD"
"1030","USC00303722",42.4206,-77.5675,502.9,"HASKINVILLE"
"1031","USC00303766",42.5,-76.8833,237.7,"HECTOR"
"1032","USC00303769",42.485,-78.9367,265.2,"HELMUTH FIRE CTRL"
"1033","USC00303773",42.7742,-77.6083,274.9,"HEMLOCK"
"1034","USC00303781",40.7167,-73.6333,24.1,"HEMPSTEAD GARDEN CITY"
"1035","USC00303786",40.6833,-73.6667,11.9,"HEMPSTEAD MALVERNE"
"1036","USC00303792",44.0333,-75.65,208.8,"HERRING"
"1037","USC00303825",40.7667,-73.5333,45.7,"HICKSVILLE"
"1038","USC00303831",43.4,-74.5333,512.1,"HIGGINS BAY"
"1039","USC00303839",41.8333,-74.1333,43,"HIGH FALLS"
"1040","USC00303851",43.5753,-75.5208,537.4,"HIGHMARKET"
"1041","USC00303856",43.5833,-75.5167,542.8,"HIGHMARKET 1 SE"
"1042","USC00303864",42.1333,-74.4833,561.1,"HIGHMOUNT"
"1043","USC00303881",43.2833,-77.7833,88.1,"HILTON"
"1044","USC00303889",43.3,-75.15,347.8,"HINCKLEY 2 SW"
"1045","USC00303916",43.3833,-74.7333,573,"HOFFMEISTER 3 W"
"1046","USC00303919",40.8333,-73.0833,24.1,"HOLBROOK"
"1047","USC00303938",42.6333,-76.2,342.9,"HOMER"
"1048","USC00303941",43.1,-74.0167,429.8,"HOMESTEAD SANATARIUM"
"1049","USC00303953",41.75,-74.3833,131.1,"HONK FALLS"
"1050","USC00303955",42.7914,-77.5133,243.8,"HONEOYE"
"1051","USC00303957",42.95,-77.5833,185.9,"HONEOYE FALLS"
"1052","USC00303959",41.85,-73.6833,134.1,"HONEYMEAD BROOK"
"1053","USC00303961",43.8525,-75.7158,450.5,"HOOKER 12 NNW"
"1054","USC00303965",42.9,-73.35,131.1,"HOOSICK FALLS"
"1055","USC00303970",43.3117,-74.2478,268.2,"HOPE"
"1056","USC00303983",42.3489,-77.7044,403.9,"HORNELL ALMOND DAM"
"1057","USC00303986",42.15,-76.8333,274.3,"HORSEHEADS"
"1058","USC00304024",42.25,-73.7833,98.1,"HUDSON"
"1059","USC00304025",42.2475,-73.7922,9.1,"HUDSON CORRECTIONAL FACILITY"
"1060","USC00304045",42.2333,-78.2333,594.4,"HUMPHREY"
"1061","USC00304052",42.2,-74.2167,499.9,"HUNTER MTN"
"1062","USC00304070",42.4272,-76.1253,424.9,"HUNTS CORNERS"
"1063","USC00304102",43.7547,-74.2756,509,"INDIAN LAKE 2SW"
"1064","USC00304105",44,-75.3667,292.6,"INDIAN RIVER"
"1065","USC00304111",43.0667,-74.7667,177.1,"INGHAMS"
"1066","USC00304174",42.4492,-76.4492,292.6,"ITHACA CORNELL UNIV"
"1067","USC00304182",43.0167,-74.9167,118.9,"JACKSONBURG"
"1068","USC00304206",42.1,-79.25,424,"JAMESTOWN"
"1069","USC00304207",42.11,-79.1592,381,"JAMESTOWN 4 ENE"
"1070","USC00304208",42.1167,-79.2333,423.7,"JAMESTOWN WTR WKS"
"1071","USC00304234",41.7833,-74.9333,329.2,"JEFFERSONVILLE"
"1072","USC00304271",42.9167,-73.5167,107,"JOHNSONVILLE"
"1073","USC00304332",44.1833,-73.8,390.1,"KEENE VALLEY 1 W"
"1074","USC00304348",42.7833,-76.3667,432.8,"KELLOGGSVILLE"
"1075","USC00304353",43.3333,-78.0333,98.1,"KENDALL"
"1076","USC00304354",43.3386,-78.1289,97.5,"KENT"
"1077","USC00304415",42.6667,-76.6167,289.6,"KING FERRY"
"1078","USC00304424",41.9333,-74,85,"KINGSTON CITY HALL"
"1079","USC00304429",41.9167,-73.9833,3,"KINGSTON GAS PLT"
"1080","USC00304450",42,-78.5167,723,"KNAPP CREEK"
"1081","USC00304472",42.4,-74.8,580,"KORTRIGHT"
"1082","USC00304473",42.4167,-74.8,527.3,"KORTRIGHT 2"
"1083","USC00304486",41.7833,-74.4,220.1,"LACKAWACK"
"1084","USC00304520",44.1,-74,838.2,"LAKE COLDEN"
"1085","USC00304525",42.25,-74.9,448.1,"LAKE DELAWARE"
"1086","USC00304529",43.4333,-73.7167,106.7,"LAKE GEORGE"
"1087","USC00304530",43.4333,-73.7167,106.7,"LAKE GEORGE #1"
"1088","USC00304531",40.8667,-73.1167,33.5,"LAKE GROVE"
"1089","USC00304533",42.0667,-74.1833,342,"LAKE HILL"
"1090","USC00304537",43.2614,-73.8342,185.9,"LAKE LUZERNE"
"1091","USC00304555",44.2489,-73.985,591.3,"LAKE PLACID 2 S"
"1092","USC00304563",40.8333,-73.1333,24.1,"LAKE RONKONKOMA"
"1093","USC00304564",42.7069,-78.9497,206,"LAKEVIEW 1W"
"1094","USC00304565",43.3714,-78.2664,82.3,"LAKESIDE"
"1095","USC00304575",42.4486,-74.4653,335.3,"LANSING MANOR"
"1096","USC00304613",40.9333,-73.75,11.9,"LARCHMONT"
"1097","USC00304632",40.7333,-73.9333,3,"LAUREL HILL"
"1098","USC00304647",44.7583,-74.6692,142,"LAWRENCEVILLE 3 SW"
"1099","USC00304673",42.8167,-75.2667,472.4,"LEONARDSVILLE"
"1100","USC00304684",42.9736,-77.9672,272.8,"LE ROY 1E"
"1101","USC00304685",42.9833,-78,280.4,"LEROY"
"1102","USC00304686",42.4833,-73.3667,283.5,"LEBANON SPRINGS"
"1103","USC00304698",42.5833,-78.0333,384,"LETCHWORTH PARK"
"1104","USC00304706",41.95,-74.8333,580,"LEWBEACH"
"1105","USC00304715",43.1833,-79.05,100.9,"LEWISTON 1 N"
"1106","USC00304717",43.1333,-78.9667,192,"LEWISTON 3 SE"
"1107","USC00304723",42.2333,-74.3333,451.1,"LEXINGTON 1 SE"
"1108","USC00304731",41.8017,-74.74,481.6,"LIBERTY 1 NE"
"1109","USC00304754",42.7,-75.8833,387.1,"LINCKLAEN"
"1110","USC00304767",42.8833,-78.1667,342,"LINDEN"
"1111","USC00304772",42.0636,-77.1467,317,"LINDLEY 2N"
"1112","USC00304782",42.35,-76,297.5,"LISLE"
"1113","USC00304784",42.3833,-76.1,432.8,"LISLE"
"1114","USC00304791",43.0603,-74.8686,272.2,"LITTLE FALLS CITY RSCH"
"1115","USC00304796",43.0333,-74.8667,109.7,"LITTLE FALLS MILL ST"
"1116","USC00304801",43.0167,-74.7833,94.2,"LITTLE FALLS 5 E"
"1117","USC00304808",42.2472,-78.8125,495.3,"LITTLE VALLEY"
"1118","USC00304836",42.6703,-76.4722,365.8,"LOCKE 2 W"
"1119","USC00304844",43.1878,-78.6092,185.9,"LOCKPORT 4E"
"1120","USC00304849",43.2,-78.6333,134.1,"LOCKPORT 4 NE"
"1121","USC00304912",43.7928,-75.4828,263,"LOWVILLE"
"1122","USC00304939",43.3392,-78.3892,102.7,"LYNDONVILLE"
"1123","USC00304940",43.3167,-78.3833,97.5,"LYNDONVILLE (1)"
"1124","USC00304942",43.1,-77,129.8,"LYONS"
"1125","USC00304944",43.6167,-75.3667,243.8,"LYONS FALLS"
"1126","USC00304952",43.0731,-77.3019,142,"MACEDON"
"1127","USC00304957",43.95,-76.1167,79.9,"MADISON BARRACKS"
"1128","USC00304984",43.3167,-76.1,136.9,"MALLORY"
"1129","USC00304995",44.85,-74.3833,246.9,"MALONE (1)"
"1130","USC00304996",44.8419,-74.3081,268.2,"MALONE"
"1131","USC00305032",42.3833,-74.3167,493.8,"MANORKILL"
"1132","USC00305072",42.9833,-76.3833,313.9,"MARCELLUS SCS"
"1133","USC00305110",41.1833,-73.8333,177.1,"MARYKNOLL"
"1134","USC00305113",42.4694,-75.0106,373.4,"EMMONS"
"1135","USC00305120",42.05,-74.8167,463.9,"MARY SMITH"
"1136","USC00305129",44.9833,-74.7833,67.1,"MASSENA SNELL LOCK"
"1137","USC00305142",40.9886,-72.5103,6.1,"MATTITUCK"
"1138","USC00305171",43,-76.7667,121.9,"MAYS POINT LOCK 25"
"1139","USC00305180",42.2394,-79.5078,421.2,"MAYVILLE"
"1140","USC00305199",43.6167,-75.1167,451.1,"MCKEEVER"
"1141","USC00305231",42.8833,-73.6833,11.9,"MECHANICVILLE 2 S"
"1142","USC00305233",42.4422,-76.7586,460.2,"MECKLENBURG 4SW"
"1143","USC00305235",40.8167,-72.9833,24.4,"MEDFORD"
"1144","USC00305236",43.2092,-78.3894,167.6,"MEDINA"
"1145","USC00305248",42.8503,-73.6094,106.7,"MELROSE 1 NE"
"1146","USC00305255",43.05,-73.9,125,"MILTON CTR"
"1147","USC00305276",41.8,-74.4331,263.7,"MERRIMAN DAM"
"1148","USC00305283",41.3833,-73.65,116.1,"MIDDLE BRANCH RSVR"
"1149","USC00305291",42.6,-74.3167,220.1,"MIDDLEBURG"
"1150","USC00305310",41.4603,-74.4489,213.4,"MIDDLETOWN 2 NW"
"1151","USC00305312",41.4333,-74.4167,153,"MIDDLETOWN 2"
"1152","USC00305334",41.8553,-73.67,249.9,"MILLBROOK"
"1153","USC00305346",41.95,-73.5167,223.1,"MILLERTON"
"1154","USC00305377",40.7328,-73.6183,29.3,"MINEOLA"
"1155","USC00305380",40.7494,-73.6233,30.5,"MINEOLA 1 NE"
"1156","USC00305382",40.7333,-73.65,27.1,"MINEOLA 1 W"
"1157","USC00305388",41.7333,-74.2333,548.6,"MINNEWASKA"
"1158","USC00305426",41.7681,-74.155,379.5,"MOHONK LAKE"
"1159","USC00305429",44.8167,-74.5667,61,"MOIRA"
"1160","USC00305435",41.5703,-74.7931,379.8,"MONGAUP VALLEY 4 SSW"
"1161","USC00305438",43.7611,-75.6803,542.5,"MONTAGUE"
"1162","USC00305441",41.05,-71.95,3,"MONTAUK"
"1163","USC00305489",43.3833,-74.7333,517.2,"MOREHOUSEVILLE"
"1164","USC00305512",42.8417,-75.7264,512.4,"MORRISVILLE 6 SW"
"1165","USC00305540",40.9833,-73.8667,243.8,"MOUNT HOPE"
"1166","USC00305560",42.4667,-73.4,219.5,"MT LEBANON"
"1167","USC00305580",43.2,-73.75,323.1,"MOUNT MCGREGOR"
"1168","USC00305597",42.7314,-77.9053,268.2,"MT MORRIS 2 W"
"1169","USC00305604",42.45,-76.3667,502.9,"MT PLEASANT FARM"
"1170","USC00305606",40.9331,-73.0192,15.2,"MOUNT SINAI"
"1171","USC00305618",40.9,-73.8333,47.2,"MOUNT VERNON"
"1172","USC00305635",42.6167,-77.4,228.6,"NAPLES"
"1173","USC00305639",41.5667,-75.0167,225.6,"NARROWSBURG 4 SE"
"1174","USC00305658",43.95,-74.8333,518.2,"NEHASANE"
"1175","USC00305671",41.8333,-74.65,396.8,"NEVERSINK"
"1176","USC00305673",42.3244,-78.8669,413,"CATTARAUGUS"
"1177","USC00305675",42.2833,-78.9167,601.1,"NEW ALBION 1 W"
"1178","USC00305676",42.3114,-78.9083,606.6,"NEW ALBION 2"
"1179","USC00305679",43.0467,-77.0842,131.1,"NEWARK"
"1180","USC00305682",42.2464,-76.1767,301.8,"NEWARK VALLEY 1N"
"1181","USC00305687",42.6167,-75.3333,329.2,"NEW BERLIN"
"1182","USC00305692",42.6167,-75.4333,502.9,"NEW BERLIN 5 WSW"
"1183","USC00305711",43.9667,-74.2167,494.1,"NEWCOMB 3 W"
"1184","USC00305714",43.9708,-74.2219,502,"NEWCOMB"
"1185","USC00305715",43.29,-78.7228,103.6,"NEWFANE 1W"
"1186","USC00305728",41.6333,-73.8833,46,"NEW HACKENSACK"
"1187","USC00305743",42.2333,-74.7,586.1,"NEW KINGSTON"
"1188","USC00305748",42.5,-75.25,376.1,"NEW LISBON"
"1189","USC00305751",43.2097,-75.6453,121.9,"NEW LONDON LOCK NO 22"
"1190","USC00305759",41.6833,-74.1333,128,"NEW PALTZ 4 SW"
"1191","USC00305769",43.2,-74.9167,516.3,"NEWPORT 7 NE"
"1192","USC00305796",40.5939,-73.9808,6.1,"NY AVE V BROOKLYN"
"1193","USC00305798",40.6,-73.9667,6.1,"NEW YORK BENSONHURST"
"1194","USC00305799",40.8667,-73.8833,27.1,"NEW YORK BOTANICAL GRD"
"1195","USC00305804",40.7333,-73.9333,3,"NEW YORK LAUREL HILL"
"1196","USC00305806",40.85,-73.9167,54.9,"NEW YORK UNIV ST"
"1197","USC00305816",40.7,-74.0167,3,"NEW YORK WB CITY"
"1198","USC00305821",40.6333,-74.1167,24.4,"NY WESTERLEIGH STAT IS"
"1199","USC00305840",43.1139,-78.9353,179.2,"NIAGARA FALLS INTL AP"
"1200","USC00305869",44.8053,-74.9997,70.1,"NORFOLK"
"1201","USC00305917",42.5167,-77.4667,399.9,"NORTH COHOCTON SCS"
"1202","USC00305925",43.6611,-73.8969,271.3,"N CREEK 5 SE"
"1203","USC00305965",44.4833,-75.7167,91.4,"NORTH HAMMOND"
"1204","USC00305987",43.5333,-74.95,558.1,"NORTH LAKE"
"1205","USC00306019",40.9,-73.35,6.1,"NORTHPORT"
"1206","USC00306028",43.1833,-76.8833,118.9,"NORTH ROSE"
"1207","USC00306042",42.35,-74.2833,579.1,"WINDHAM NORTH SETTLEME"
"1208","USC00306047",43.0219,-78.8467,182.9,"N TONAWANDA"
"1209","USC00306062",43.1592,-74.2042,240.8,"NORTHVILLE"
"1210","USC00306085",42.5117,-75.5197,301.4,"NORWICH"
"1211","USC00306098",43.8667,-75.1833,478.8,"NUMBER FOUR"
"1212","USC00306111",42.4,-74.15,200.9,"OAK HILL"
"1213","USC00306119",41.5,-74.65,280.4,"OAKLAND VALLEY"
"1214","USC00306138",40.6328,-73.6269,3.7,"OCEANSIDE"
"1215","USC00306164",44.7281,-75.4442,85.3,"OGDENSBURG 4 NE"
"1216","USC00306168",41.7333,-74.0667,109.1,"OHIOVILLE"
"1217","USC00306179",43.7,-75,519.1,"OLD FORGE THENDARA"
"1218","USC00306184",43.7025,-74.9839,532.8,"OLD FORGE"
"1219","USC00306196",42.0736,-78.4517,432.8,"OLEAN"
"1220","USC00306217",42.4603,-75.0642,350.5,"ONEONTA"
"1221","USC00306224",42.45,-75.0667,328.9,"ONEONTA 1 S"
"1222","USC00306225",42.45,-75.0667,351.1,"ONEONTA"
"1223","USC00306229",42.45,-75,353.9,"ONEONTA 3 SE"
"1224","USC00306232",42.4667,-75.0667,427,"ONEONTA STATE UNIV"
"1225","USC00306275",41.15,-72.2667,3,"ORIENT 2 E"
"1226","USC00306276",41.1322,-72.2583,0.9,"ORIENT PT SP"
"1227","USC00306300",43.4992,-75.7122,332.8,"OSCEOLA"
"1228","USC00306301",41.15,-73.8667,9.1,"OSSINING SING SING"
"1229","USC00306306",44.1833,-75.0667,396.2,"OSWEGATCHIE"
"1230","USC00306314",43.4622,-76.4933,106.7,"OSWEGO E"
"1231","USC00306322",42.4667,-75.2,460.9,"OTEGO"
"1232","USC00306346",42.6167,-76.8167,342,"OVID 4 S"
"1233","USC00306356",42.0811,-76.3178,246.9,"OWEGO 3 WSW"
"1234","USC00306365",42.5,-75.7333,502.9,"OXFORD"
"1235","USC00306368",40.8667,-73.5333,12.2,"OYSTER BAY"
"1236","USC00306375",43.4,-76.3,142.3,"PALERMO"
"1237","USC00306376",43.3319,-76.2692,135.6,"PALERMO 2SSE"
"1238","USC00306411",44.6333,-74.8333,228.9,"PARISHVILLE 1 WNW"
"1239","USC00306426",41.9,-74.8167,445,"PARKSTON"
"1240","USC00306441",40.7967,-73.0014,16.8,"PATCHOGUE 2 N"
"1241","USC00306459",44.4333,-74.2667,509,"PAUL SMITHS"
"1242","USC00306464",42.9114,-77.9808,310.9,"PAVILION 2NE"
"1243","USC00306465",42.8733,-77.9925,353.6,"PAVILION 2"
"1244","USC00306479",41.9333,-74.3833,445,"PEEKAMOOSE"
"1245","USC00306480",43.1011,-78.7139,179.5,"PENDLETON 1NE"
"1246","USC00306510",42.6711,-77.0628,253,"PENN YAN"
"1247","USC00306517",42.6667,-77.1833,303.9,"PENN YAN 8 W"
"1248","USC00306523",42.7214,-78.0083,415.1,"PERRY"
"1249","USC00306524",42.4833,-76.7,316.4,"PERRY CITY"
"1250","USC00306525",42.4647,-79.0031,368.8,"PERRYSBURG"
"1251","USC00306527",42.45,-79.0167,477,"PERRYSBURG 1 SW"
"1252","USC00306538",44.5658,-73.57,155.4,"PERU 2 WSW"
"1253","USC00306549",42.7333,-73.3,353.9,"PETERSBURG 2 SE"
"1254","USC00306557",44.1333,-75.7,147.8,"PHILADELPHIA"
"1255","USC00306562",41.4333,-74.3667,134.1,"PHILLIPSBURG"
"1256","USC00306567",42.0864,-74.3142,265.2,"PHOENICIA"
"1257","USC00306570",42.0675,-74.3356,323.1,"PHONECIA 2SW"
"1258","USC00306579",43.0667,-76.2833,121.9,"PHOENIX"
"1259","USC00306623",43.4614,-74.5231,527.3,"PISECO"
"1260","USC00306649",42.1389,-74.0914,619.4,"PLATTE CLOVE"
"1261","USC00306659",44.65,-73.4667,50.3,"PLATTSBURGH AFB"
"1262","USC00306660",44.6917,-73.4556,54.3,"PLATTSBURGH 1 S"
"1263","USC00306674",41.1314,-73.7758,97.5,"PLEASANTVILLE"
"1264","USC00306685",42.6167,-75.6,390.1,"PLYMOUTH"
"1265","USC00306745",42.57,-78.0406,356,"PORTAGEVILLE"
"1266","USC00306747",42.3717,-79.4867,246.3,"PORTLAND1 SW"
"1267","USC00306765",44.05,-73.45,36.9,"PORT HENRY"
"1268","USC00306768",40.95,-73.0667,3,"PORT JEFFERSON"
"1269","USC00306774",41.3892,-74.6906,176.8,"PORT JERVIS"
"1270","USC00306789",42.0333,-78.3333,435.9,"PORTVILLE"
"1271","USC00306810",44.6667,-75,131.1,"POTSDAM"
"1272","USC00306817",41.6833,-73.9333,31.1,"POUGHKEEPSIE"
"1273","USC00306820",41.7269,-73.9203,76.5,"POUGHKEEPSIE"
"1274","USC00306827",41.7167,-73.9167,67.1,"POUGHKEEPSIE PENDELL R"
"1275","USC00306831",42.5333,-77.3,591.9,"PRATTSBURG 2 NW"
"1276","USC00306833",42.5167,-77.2667,438.9,"PRATTSBURG"
"1277","USC00306839",42.3281,-74.4422,367.9,"PRATTSVILLE"
"1278","USC00306842",42.3167,-74.4333,348.1,"PRATTSVILLE 2"
"1279","USC00306848",42.4333,-74.2,267.9,"PRESTON HOLLOW"
"1280","USC00306867",43.5697,-76.1164,121.6,"PULASKI"
"1281","USC00306941",43.8167,-74.6667,542.8,"RAQUETTE LAKE"
"1282","USC00306957",44.2961,-74.1028,493.8,"RAY BROOK"
"1283","USC00306965",43.75,-75.6833,550.5,"RECTORS CORNERS"
"1284","USC00306983",42,-73.8667,67.1,"RED HOOK"
"1285","USC00306988",43.6414,-75.8839,398.7,"REDFIELD 8N"
"1286","USC00306989",42.1167,-78.8,412.1,"REDHOUSE"
"1287","USC00306999",42.3167,-74.6333,622.1,"RELAY"
"1288","USC00307024",42.5333,-74.1667,527.9,"RENSSELAERVILLE 2 NW"
"1289","USC00307033",41.9333,-73.9167,65.5,"RHINEBECK"
"1290","USC00307035",41.8847,-73.8686,91.7,"RHINEBECK 4SE"
"1291","USC00307069",42.3667,-76.2167,448.1,"RICHFORD"
"1292","USC00307070",42.35,-76.2,335.9,"RICHFORD"
"1293","USC00307077",43.5667,-76.05,159.1,"RICHLAND"
"1294","USC00307088",42.6333,-74.55,457.2,"RICHMONDVILLE"
"1295","USC00307097",43.2667,-78.3833,128,"RIDGEWAY"
"1296","USC00307115",41.85,-74.05,11.9,"RIFTON 1 N"
"1297","USC00307129",43.6,-73.7331,228.6,"RIVERBANK"
"1298","USC00307134",40.9619,-72.7158,30.5,"RIVERHEAD RSCH FM"
"1299","USC00307195",42.3833,-75.4,313.9,"ROCKDALE"
"1300","USC00307205",41.6,-74.6,473,"ROCK HILL"
"1301","USC00307210",41.5917,-74.6142,387.1,"ROCK HILL 3 SW"
"1302","USC00307250",42.75,-76.8333,219.2,"ROMULUS"
"1303","USC00307252",41.9167,-73.9667,57.3,"RONDOUT"
"1304","USC00307260",41.9267,-74.8958,454.2,"ROSCOE"
"1305","USC00307274",41.8481,-74.0472,37.2,"ROSENDALE 2 E"
"1306","USC00307282",40.8,-73.6333,67.1,"ROSLYN"
"1307","USC00307291",42.9239,-73.7858,59.4,"ROUND LAKE 1 SE"
"1308","USC00307317",42.2833,-74.5667,454.2,"ROXBURY"
"1309","USC00307329",42.4261,-78.1922,487.7,"RUSHFORD"
"1310","USC00307338",41.0667,-73.7167,129.5,"RYE LAKE AIRPORT"
"1311","USC00307348",44.1167,-74.6667,537.1,"SABATTIS 3 NE"
"1312","USC00307356",44.05,-74.6333,527.9,"SABATTIS WHITNEY PARK"
"1313","USC00307382",43,-74.6833,107,"ST JOHNSVILLE"
"1314","USC00307397",42.1833,-78.7167,534,"SALAMANCA"
"1315","USC00307398",42.1589,-78.7219,418.2,"SALAMANCA"
"1316","USC00307400",42.1506,-78.7203,431.3,"SALAMANCA 2"
"1317","USC00307405",43.1667,-73.3167,149.4,"SALEM"
"1318","USC00307413",43.1667,-74.8667,420.9,"SALISBURY"
"1319","USC00307420",41.4333,-74.1167,95.7,"SALISBURY MILLS"
"1320","USC00307425",43.17,-78.8178,192.9,"SANBORN 4NE"
"1321","USC00307430",43.6403,-76.0972,144.2,"SANDY CREEK"
"1322","USC00307472",44.3333,-74.1333,481.9,"SARANAC LAKE"
"1323","USC00307480",43.1,-73.8333,167.9,"SARATOGA SPRINGS 4 NW"
"1324","USC00307484",43.0411,-73.8211,99.4,"SARATOGA SPRINGS 4 SW"
"1325","USC00307497",40.9833,-73.8,60.7,"SCARSDALE"
"1326","USC00307505",42.9,-73.6,39.9,"SCHAGHTICOKE 1 W"
"1327","USC00307514",42.8,-73.9167,109.7,"SCHENECTADY"
"1328","USC00307520",42.665,-74.3036,223.7,"SCHOHARIE"
"1329","USC00307524",43.8333,-73.7667,262.1,"SCHROON LAKE"
"1330","USC00307532",44.0167,-73.7,284.1,"SCHROON RIVER 4 N"
"1331","USC00307544",43.1167,-73.5833,34.1,"SCHUYLERVILLE LOCK 5"
"1332","USC00307549",43.1131,-73.5775,36.6,"SCHUYLERVILLE"
"1333","USC00307557",42.1667,-77.9833,438.9,"SCIO"
"1334","USC00307568",42.8167,-73.9833,70.1,"SCOTIA"
"1335","USC00307578",43.0167,-77.75,171,"SCOTTSVILLE"
"1336","USC00307587",40.8506,-73.6483,30.5,"SEA CLIFF"
"1337","USC00307596",42.05,-74.55,586.1,"SEAGER"
"1338","USC00307633",40.9586,-73.1047,12.2,"SETAUKET STRONG"
"1339","USC00307659",42.8,-74.6,249.9,"SHARON SPRINGS 1N"
"1340","USC00307664",42.7833,-74.6667,415.1,"SHARON SPRINGS 2 SW"
"1341","USC00307705",42.6772,-75.5067,333.8,"SHERBURNE"
"1342","USC00307713",42.1572,-79.5936,475.5,"SHERMAN"
"1343","USC00307721",41.95,-74.2,155.4,"SHOKAN BROWN STATION"
"1344","USC00307728",42.95,-77.25,201.2,"SHORTSVILLE"
"1345","USC00307742",41.3325,-73.8369,140.8,"SHRUB OAK"
"1346","USC00307748",43.7,-73.5167,106.7,"SILVER BAY"
"1347","USC00307749",42.7058,-78.0936,508.1,"SILVER SPRINGS 3N"
"1348","USC00307750",42.5381,-79.17,182.9,"SILVER CREEK"
"1349","USC00307772",42.2786,-79.2656,493.8,"SINCLAIRVILLE"
"1350","USC00307780",42.9461,-76.4314,266.7,"SKANEATELES"
"1351","USC00307799",42.0167,-74.4167,807.7,"SLIDE MTN"
"1352","USC00307818",43.3519,-73.4961,43.3,"SMITHS BASIN"
"1353","USC00307830",42.3833,-75.8167,329.2,"SMITHVILLE FLATS"
"1354","USC00307842",43.2358,-77.0842,135.3,"SODUS 1W"
"1355","USC00307864",42.6833,-77.85,189,"SONYEA"
"1356","USC00307895",40.9,-72.45,11,"SOUTHHAMPTON"
"1357","USC00307906",43.0833,-78.0667,189,"SOUTH BYRON"
"1358","USC00307918",42.1833,-77.55,476.1,"SOUTH CANISTEO"
"1359","USC00307925",44.5167,-74.8833,277.4,"SOUTH COLTON"
"1360","USC00307940",42.6833,-75.3167,404.5,"SOUTH EDMESTON"
"1361","USC00307944",44.2667,-75.2,244.1,"SOUTH EDWARDS 1 E"
"1362","USC00307998",42.5333,-75.4333,430.1,"SOUTH NEW BERLIN 2"
"1363","USC00308006",42.6,-75.4333,537.1,"SOUTH NEW BERLIN 5 NNW"
"1364","USC00308036",43.7833,-73.8,299,"SOUTH SCHROON"
"1365","USC00308058",42.7167,-78.6,331.9,"SOUTH WALES EMERY PARK"
"1366","USC00308072",41.0333,-73.9333,18,"SPARKILL"
"1367","USC00308080",43.5,-74.3617,530.4,"SPECULATOR"
"1368","USC00308086",42.2167,-76.4667,356.6,"SPENCER 1 NE"
"1369","USC00308088",42.25,-76.5,320,"SPENCER 2 N"
"1370","USC00308089",42.2,-76.5333,323.1,"SPENCER 2 WSW"
"1371","USC00308090",42.1833,-76.5167,402.9,"SPENCER 3 SW"
"1372","USC00308091",42.2,-76.5333,317,"SPENCER 2 W"
"1373","USC00308096",42.3333,-73.55,192,"SPENCERTOWN"
"1374","USC00308099",43.7667,-75.3,359.7,"SPERRYVILLE"
"1375","USC00308104",43.2333,-73.75,118.9,"SPIER FALLS"
"1376","USC00308130",41.1167,-74.05,136.9,"SPRING VALLEY"
"1377","USC00308131",42.5572,-78.7389,459.6,"SPRINGVILLE 4NW"
"1378","USC00308132",42.5497,-78.5767,515.4,"SPRINGVILLE 5NE"
"1379","USC00308138",43.1333,-74.6667,366.1,"SPRITE CREEK"
"1380","USC00308152",42.9833,-78.0833,278,"STAFFORD"
"1381","USC00308160",42.4,-74.6333,542.2,"STAMFORD"
"1382","USC00308240",43.1333,-74.6,470,"STEWARTS LANDING"
"1383","USC00308248",43.9,-75.0367,515.1,"STILLWATER RSVR"
"1384","USC00308304",41.5333,-73.7333,278.9,"STORMVILLE"
"1385","USC00308309",42.1667,-76.3667,335.3,"STRAITS CORNERS NEAR"
"1386","USC00308317",42.4608,-73.75,86.9,"STUYVESANT 5 N"
"1387","USC00308321",41.1167,-74.1167,153,"SUFFERN 2 E"
"1388","USC00308322",41.1128,-74.1572,82.3,"SUFFERN"
"1389","USC00308338",42.5833,-74.5833,625.1,"SUMMIT"
"1390","USC00308352",41.8833,-74.4667,305.1,"SUNDOWN"
"1391","USC00308380",43.05,-76.15,-999.9,"SYRACUSE"
"1392","USC00308386",43.0344,-76.1344,173.4,"SUNY ESF SYRACUSE"
"1393","USC00308388",43.3,-75.6167,157,"TABERG"
"1394","USC00308393",43.9667,-74.0333,576.1,"TAHAWUS"
"1395","USC00308403",42.1833,-74.15,548.9,"TANNERSVILLE SWG PLT"
"1396","USC00308405",42.2,-74.1,586.1,"TANNERSVILLE 2 E"
"1397","USC00308432",42.1333,-74.9,420.9,"TERRY CLOVE"
"1398","USC00308455",44.2756,-75.8369,110,"THERESA 4NW"
"1399","USC00308498",42.2072,-77.3306,493.8,"THURSTON"
"1400","USC00308503",43.85,-73.4167,49.1,"TICONDEROGA"
"1401","USC00308512",41.4,-73.65,121.9,"TILLY FOSTER"
"1402","USC00308523",41.3333,-73.65,82,"TITICUS"
"1403","USC00308577",40.8217,-73.4908,80.8,"SYOSSET"
"1404","USC00308578",43.2761,-75.1567,243.8,"TRENTON FALLS"
"1405","USC00308586",42.9464,-74.2886,91.4,"TRIBES HILL"
"1406","USC00308594",42.0667,-77.4833,521.2,"TROUPSBURG 4 NE"
"1407","USC00308597",42.7333,-73.7,10.7,"TROY"
"1408","USC00308600",42.7508,-73.6856,7.3,"TROY L&D"
"1409","USC00308611",42.7167,-76.0167,353.9,"TRUXTON"
"1410","USC00308614",42.7667,-76.0333,427,"TRUXTON 4 N"
"1411","USC00308619",42.7833,-76.0333,534,"TRUXTON 5 N"
"1412","USC00308625",42.8333,-76.0333,396.2,"TULLY 4 NE"
"1413","USC00308627",42.7603,-76.0803,578.8,"TULLY HEIBERG FOREST"
"1414","USC00308631",44.2308,-74.4383,512.1,"TUPPER LAKE SUNMOUNT"
"1415","USC00308633",43.6167,-75.4167,396.2,"TURIN"
"1416","USC00308635",43.65,-75.4167,402.9,"TURIN 1 N"
"1417","USC00308665",42.3167,-75.3167,310.9,"UNADILLA"
"1418","USC00308670",42.3542,-75.3242,451.1,"UNADILLA 2 N"
"1419","USC00308720",40.8706,-72.8914,22.9,"UPTON"
"1420","USC00308721",40.8656,-72.8642,7.9,"UPTON COOP - NWSFO NEW YORK"
"1421","USC00308733",43.1167,-75.2333,125,"UTICA HARBOR POINT"
"1422","USC00308739",43.0833,-75.2,176.8,"UTICA"
"1423","USC00308742",43,-75.2667,318.8,"UTICA 7 SSW"
"1424","USC00308746",42.4333,-73.6833,91.4,"VALATIE 1 N"
"1425","USC00308749",41.0667,-73.7667,113.1,"VALHALLA 2 E"
"1426","USC00308773",40.9,-73.3667,33.5,"VANDERBILT MUSEUM"
"1427","USC00308831",42.1,-76.05,253,"VESTAL 2"
"1428","USC00308833",42.05,-76.05,454.2,"VESTAL"
"1429","USC00308839",43.0044,-77.4472,179.2,"VICTOR 2NW"
"1430","USC00308856",42.65,-73.9667,121.9,"VOORHEESVILLE"
"1431","USC00308860",42.2667,-79.6,477.6,"VOLUSIA"
"1432","USC00308870",42.7,-73.95,98.1,"VOORHEESVILLE DEPOT"
"1433","USC00308902",41.5667,-74.1667,121.9,"WALDEN 2 NE"
"1434","USC00308906",41.5514,-74.1628,115.8,"WALDEN 1 ESE"
"1435","USC00308910",42.7392,-78.5878,345.9,"WALES"
"1436","USC00308924",42.4333,-77.4667,488,"WALLACE SCS"
"1437","USC00308932",42.1847,-75.1456,451.1,"WALTON 2"
"1438","USC00308935",42.2333,-75.0833,548.9,"WALTON 5 NE"
"1439","USC00308936",42.1667,-75.1333,378,"WALTON"
"1440","USC00308944",44.1481,-74.9003,460.2,"WANAKENA RNGR SCHOOL"
"1441","USC00308946",40.655,-73.5053,3,"WANTAGH CEDAR CREEK"
"1442","USC00308949",41.65,-73.8667,34.7,"WAPPINGERS FALLS"
"1443","USC00308959",43.55,-73.8,237.7,"WARRENSBURG 4 NW"
"1444","USC00308962",42.6856,-78.2203,554.7,"WARSAW 6 SW"
"1445","USC00308967",41.2667,-74.3667,164.9,"WARWICK"
"1446","USC00308987",42.9014,-76.8642,137.8,"WATERLOO"
"1447","USC00309000",43.9761,-75.8753,151.5,"WATERTOWN"
"1448","USC00309020",42.3667,-76.8667,139.9,"WATKINS GLEN"
"1449","USC00309021",42.4,-76.9,244.1,"WATKINS GLEN 2 NW"
"1450","USC00309047",42.0019,-76.525,257.6,"WAVERLY"
"1451","USC00309049",43.2419,-77.3883,83.8,"WEBSTER 2 NE"
"1452","USC00309050",42.3333,-76.95,435.9,"WEDGEWOOD"
"1453","USC00309055",44.3564,-75.9286,86.9,"WELLESLEY ISLAND"
"1454","USC00309072",42.1172,-77.9475,460.2,"WELLSVILLE"
"1455","USC00309076",42.1667,-77.9833,445,"WELLSVILLE 4 NNW"
"1456","USC00309087",42.3,-77.8833,598,"WEST ALMOND"
"1457","USC00309088",42.2833,-77.9333,531,"WEST ALMOND 3 W"
"1458","USC00309089",42.8847,-77.5339,301.8,"W BLOOMFIELD 1 S"
"1459","USC00309100",42.6167,-74.1667,285.3,"WEST BERNE"
"1460","USC00309117",40.7333,-73.6,27.4,"WESTBURY"
"1461","USC00309125",42.2167,-77.4167,323.1,"WEST CAMERON"
"1462","USC00309178",42.5167,-74.05,353.9,"WESTERLO"
"1463","USC00309189",42.2956,-79.5856,215.5,"WESTFIELD 2 SSE"
"1464","USC00309205",42.4333,-74.7167,573,"WEST HARPERSFIELD"
"1465","USC00309229",42.1453,-77.5661,661.4,"WEST JASPER"
"1466","USC00309237",42.2,-74.3833,458.1,"WEST KILL"
"1467","USC00309248",43.1594,-75.4611,172.2,"WESTMORELAND 4N"
"1468","USC00309250",43.0333,-73.9333,134.1,"WEST MILTON"
"1469","USC00309270",41.0833,-73.9667,57.9,"WEST NYACK"
"1470","USC00309292",41.3906,-73.9608,97.5,"WEST POINT"
"1471","USC00309303",42.6167,-73.6,195.1,"WEST SAND LAKE 2 S"
"1472","USC00309307",42.8333,-78.75,200.9,"WEST SENECA 1 NE"
"1473","USC00309311",41.95,-74.3167,299,"WEST SHOKAN 3 SW"
"1474","USC00309374",44.8047,-74.2597,253,"WHIPPLEVILLE"
"1475","USC00309383",44.3667,-73.9,1482.9,"WHITEFACE MOUNTAIN"
"1476","USC00309389",43.5575,-73.4011,36.3,"WHITEHALL"
"1477","USC00309400",41.0167,-73.7333,45.7,"WHITE PLAINS MPL MOOR"
"1478","USC00309413",41.5,-73.75,241.1,"WHITE POND"
"1479","USC00309425",42.0597,-77.7553,661.4,"WHITESVILLE 1N"
"1480","USC00309437",42.3333,-75.9667,317,"WHITNEY POINT LAKE"
"1481","USC00309439",42.3333,-75.8667,454.2,"WHITNEY POINT 5 E"
"1482","USC00309442",42.3417,-75.9653,317,"WHITNEY POINT DAM"
"1483","USC00309457",42.6833,-76.8833,138.7,"WILLARD"
"1484","USC00309466",40.8,-73.7667,16.8,"WILLETS POINT"
"1485","USC00309480",43.3769,-75.9206,214.9,"WILLIAMSTOWN"
"1486","USC00309494",44.3333,-73.35,61,"WILLSBORO"
"1487","USC00309495",44.3842,-73.3819,54.9,"WILLSBORO 1 N"
"1488","USC00309499",44.3931,-73.8589,615.7,"WILMINGTON 2W"
"1489","USC00309507",43.25,-78.8333,106.7,"WILSON 4 S"
"1490","USC00309510",43.8,-75.6167,518.2,"WINDECKER"
"1491","USC00309512",42.35,-74.2833,579.1,"WINDHAM NORTH SETTLEME"
"1492","USC00309514",42.3,-74.25,458.1,"WINDHAM"
"1493","USC00309516",42.3031,-74.2011,512.1,"WINDHAM 3 E"
"1494","USC00309533",42.5167,-78.05,350.8,"WISCOY 1 E"
"1495","USC00309544",43.25,-76.8667,121.9,"WOLCOTT 3 NW"
"1496","USC00309576",41.0167,-73.85,42.7,"WOODLANDS ARDSLEY"
"1497","USC00309593",42.8206,-78.1481,472.4,"WYOMING 3W"
"1498","USC00309640",42.8833,-77.8833,231.6,"YORK"
"1499","USC00309660",41.2667,-73.7667,128,"YORKTOWN HEIGHTS"
"1500","USC00309670",41.2664,-73.7975,204.2,"YORKTOWN HTS 1W"
"1501","USC00309690",43.2683,-79.0103,85.3,"YOUNGSTOWN 2 NE"
"1502","USC00309691",43.25,-79.05,91.4,"YOUNGSTOWN"
"1503","USR0000NGAN",42.1,-77.1,335.3,"GANG MILLS NEW YORK"
"1504","USR0000NSAR",43.0078,-73.6511,114.3,"SARA NEW YORK"
"1505","USR0000NSCH",43.8,-73.7,249.9,"SCHROON LAKE NEW YORK"
"1506","USR0000NSHR",42.7,-75.5,335.3,"SHERBURNE NEW YORK"
"1507","USR0000NSTO",41.5,-73.9,61,"STONYKILL NEW YORK"
"1508","USW00004724",43.1072,-78.9453,178.3,"NIAGARA FALLS INTL AP"
"1509","USW00004725",42.1997,-75.985,489.5,"BINGHAMTON"
"1510","USW00004727",42.75,-76.9,187.1,"GENEVA SAMPSON AFB"
"1511","USW00004742",44.65,-73.4667,71.9,"PLATTSBURGH INTL AP"
"1512","USW00004781",40.7939,-73.1017,25.6,"ISLIP LI MACARTHUR AP"
"1513","USW00004782",42.8333,-73.9167,67.1,"SCHENECTADY"
"1514","USW00004789",41.5092,-74.265,111.3,"MONTGOMERY ORANGE AP"
"1515","USW00014708",40.7333,-73.6,29.9,"MITCHELL FLD"
"1516","USW00014714",41.5,-74.1,177.1,"STEWART FLD"
"1517","USW00014715",44.05,-75.7333,214,"WHEELER SACK FLD AAF"
"1518","USW00014717",43.2333,-75.4,158.2,"GRIFFISS AFB"
"1519","USW00014719",40.8436,-72.6322,20.4,"WESTHAMPTN GABRESKI AP"
"1520","USW00014732",40.7794,-73.8803,3.4,"NEW YORK LAGUARDIA AP"
"1521","USW00014733",42.9486,-78.7369,211.2,"BUFFALO"
"1522","USW00014735",42.7431,-73.8092,95.1,"ALBANY AP"
"1523","USW00014738",42.0833,-76.1,253.9,"BINGHAMTON WB AP"
"1524","USW00014743",44.5772,-75.1097,136.6,"CANTON 4 SE"
"1525","USW00014747",42.4933,-79.2722,203,"DUNKIRK CHAUTAUQUA AP"
"1526","USW00014748",42.1594,-76.8919,291.1,"ELMIRA CORNING RGNL AP"
"1527","USW00014749",42.9667,-74.6667,217,"FT PLAIN WB AP"
"1528","USW00014750",43.35,-73.6167,97.8,"GLENS FALLS AP"
"1529","USW00014757",41.6267,-73.8842,50.6,"POUGHKEEPSIE DUTCHESS CO AP"
"1530","USW00014768",43.1167,-77.6767,162.5,"ROCHESTER GTR INTL AP"
"1531","USW00014771",43.1111,-76.1039,125.9,"SYRACUSE HANCOCK INTL AP"
"1532","USW00014772",43.8833,-73.4,64,"TICONDEROGA 3 NE"
"1533","USW00014774",43.1667,-75.3167,163.1,"UTICA AP"
"1534","USW00014786",40.5833,-73.8833,4.9,"NEW YORK FLOYD BENNETT FLD"
"1535","USW00014797",41.3167,-74,396.8,"BEAR MTN WB"
"1536","USW00014798",42.1,-75.9167,277.1,"BINGHAMTON WB CITY"
"1537","USW00054757",42.1094,-77.9919,647.4,"WELLSVILLE MUNI AP"
"1538","USW00054773",43.3497,-76.3847,144.8,"FULTON OSWEGO CO AP"
"1539","USW00054778",42.6425,-77.0564,275.2,"PENN YAN AP"
"1540","USW00054780",41.0731,-71.9233,2.1,"MONTAUK AP"
"1541","USW00054787",40.7342,-73.4169,24.7,"FARMINGDALE AP"
"1542","USW00054790",40.8217,-72.8689,25,"SHIRLEY BROOKHAVEN AP"
"1543","USW00064756",41.7858,-73.7422,125.9,"MILLBROOK 3 W"
"1544","USW00064758",42.44,-76.2461,374.3,"ITHACA 13 E"
"1545","USW00064775",43.2339,-75.4117,158.2,"ROME GRIFFISS AIRFIELD"
"1546","USW00064776",44.65,-73.4667,71.3,"PLATTSBURGH INTL AP"
"1547","USW00093732",39.8,-72.6667,25.9,"NEW YORK SHOALS AFS"
"1548","USW00094704",42.5708,-77.7133,208.8,"DANSVILLE MUNI AP"
"1549","USW00094725",44.9358,-74.8458,65.2,"MASSENA INTL AP"
"1550","USW00094728",40.7789,-73.9692,39.6,"NEW YORK CNTRL PK TWR"
"1551","USW00094733",44.6872,-73.5231,113.4,"PLATTSBURGH CLINTON AP"
"1552","USW00094740",44.3853,-74.2067,506.9,"SARANAC RGNL AP"
"1553","USW00094745",41.0669,-73.7075,115.5,"WESTCHESTER CO AP"
"1554","USW00094789",40.6386,-73.7622,3.4,"NEW YORK JFK INTL AP"
"1555","USW00094790",43.9922,-76.0217,96.9,"WATERTOWN INTL AP"
"1556","USW00094794",43.145,-75.3839,216.7,"UTICA ONEIDA CO AP"
